Barcode	label_verbatim	Country	lat_manual	long_manual	radius_km_manual
ODO000001	1st label: Uganda, Gulu Dr., W. Nile; 2nd label: Bududiri, Mt. Elgon, 4,200 ft.	Uganda	2.77292	32.28693	105
ODO000002	20 m. W. Kampala, Uganda	Uganda	0.309172	32.302463	9
ODO000003	20m. W. Kampala, Uganda	Uganda	0.309172	32.302463	9
ODO000004	30 m E Darwin, N.T.; 30 miles E. of Darwin Northern Territory; 	Australia	-12.451315	131.289462	18
ODO000005	5-fingered Mt., Hainan; Wu-chi-shan, Hainan; 	China	18.898373	109.704167	5
ODO000006	5-fingered Mt., Hainan.	China	18.898373	109.704167	5
ODO000007	5-fingered Mts., Hainan	China	18.898373	109.704167	5
ODO000008	A. Grey's Reach, Vaisigano R. 1900'	Samoa	-13.832696	-171.759612	0.3
ODO000009	Abyssinia, Zegi Tsana; Abyssinia, Lake Tsana, Zegi; 	Ethiopia	11.692409	37.312664	6
ODO000010	Acambaro, Mexico; Mexico, Acambaro in Guanajuato; 	Mexico	20.024993	-100.723342	4.5
ODO000011	Africa, Nyasaland, Zomba	Malawi	-15.377161	35.329971	6
ODO000012	Africa: Kenya, Thompson's Falls	Kenya	0.040895	36.367069	1
ODO000013	Agulu, Nigeria; Agulu Lake, near Awka, E. Nigeria; 	Nigeria	6.116907	7.038425	3
ODO000014	Alexandra, Vic.; Alexandra, Victoria; Vic[toria], Alexandra	Australia	-37.199001	145.733159	8
ODO000015	Algeria; Constantina	Algeria	36.356834	6.639049	16
ODO000016	alt 6000 ft, Ruwinzori East; Mubuku Valley, E. Ruwenzori, 6000 feet; 	Uganda	0.264838	30.121437	15
ODO000017	Alu; Solomon Islands, Alu; 	Solomon Islands	-7.052662	155.762135	12
ODO000018	Alu, Solomon Is.	Solomon Islands	-7.052662	155.762135	12
ODO000019	Amani T.T., E. Usambara	Tanzania	-5.031453	38.494604	17.5
ODO000020	Amaz; Amazons; Amazons		-3	-63.5	1500
ODO000021	Amaz.; bords de l'Amazone; 		-3	-63.5	1500
ODO000022	Amoy; Amoy, in China; 	China	24.484435	118.085317	48
ODO000023	Amula, Guerrero, 6000 ft.	Mexico	17.638311	-99.294865	1
ODO000024	Amur Land	Russia	53.442007	123.980007	1140
ODO000025	Anamba Is., Telok Padang, Jimaja	Indonesia	2.979197	105.735346	5
ODO000026	Aneit.; New Hebrides; Aneityum	Vanuatu	-20.188738	169.818289	9
ODO000027	Angola Mss, Mupa	Angola	-16.179198	15.76185	25
ODO000028	Angola MSs, Sangeve	Angola	-13.886221	15.82689	3.5
ODO000029	Angola, Miss sc. suisse, Ebanga	Angola	-12.735128	14.735997	6
ODO000030	Angola, Miss. sc. Suisse, Bimbi	Angola	-8.03918	14.705107	1
ODO000031	Angola, Miss. sc. suisse, Lunda	Angola	-6.316667	13.983376	14
ODO000032	Angola, Miss. sc. suisse, Sangeve	Angola	-13.886221	15.82689	3.5
ODO000033	Ani Sakan, N. Shan Sts, Burm.	Myanmar	21.968957	96.406001	4
ODO000034	Apia, Samoa; Apia, W. Samoa; Apia, W. Samoa	Samoa	-13.850241	-171.752021	7
ODO000035	Ara, West Madi, West Nile, Uganda	Uganda	2.451152	30.804454	3
ODO000036	Aru; Aru Islands; 	Indonesia	-6.166667	134.5	94
ODO000037	Aru Isl	Indonesia	-6.166667	134.5	94
ODO000038	Assam, 5000 ft., Shillong; Assam, Shillong, 6,000 feet.; 	India	25.58547	91.890374	9
ODO000039	Assam, 5500ft., Khasi Hills, Laitlyng Kut; Laitlyngkot, Khasia Hills, Assam; Assam, 5,500 ft., Khasi Hills, Laitlynghat	India	25.447396	91.8405	1
ODO000040	Assam, Cachar	India	24.78331	92.915721	55
ODO000041	Assam, Khasia Hills	India	25.604061	91.45192	65
ODO000042	Assam, Kumaon, 7000ft	India	29.6	79.7	120
ODO000043	Assam, Shillong	India	25.58547	91.890374	9
ODO000044	Assam, Sylhet; Assam, Sylhet; 	India	24.801065	91.980168	85
ODO000045	Assam: Darjeeling Distr., Rungbong Valley, Gopaldhara	India	26.924798	88.156879	2
ODO000046	Assam: Khasi Hills	India	25.604061	91.45192	65
ODO000047	Assam; 5000 ft., Shillong; Shillong, Assam, 6,000 ft.; 	India	25.58547	91.890374	9
ODO000048	Assam; 5000 ft., Shillong; Crinoline Falls	India	25.563708	91.882286	0.2
ODO000049	Assam; 5000 ft., Shillong; Sunshine Falls	India	25.58547	91.890374	9
ODO000050	Assob Falls, Nigeria	Nigeria	9.583373	8.616651	1
ODO000051	Astrabad, Persia	Iran	36.845322	54.443233	9
ODO000052	Aswa R., Acholi, Uganda	Uganda	2.624688	31.831045	42
ODO000053	Aswa R., Karamoja Suk, Uganda; Uganda, Aswa River (Acholi); 	Uganda	2.624688	31.831045	42
ODO000054	Atherton; Atherton, North Queensland; 	Australia	-17.266452	145.484299	8
ODO000055	Atherton, N.Q.	Australia	-17.266452	145.484299	8
ODO000056	Atoyac, Vera Cruz	Mexico	18.912675	-96.778926	1
ODO000057	Atoyac, Vera Cruz.; Mexico, Atoyac in Vera Cruz; 	Mexico	18.912675	-96.778926	1
ODO000058	Azores: Pico; Azores, from a pond on E. slope of Pico at 3,500 ft.; 	Portugal	38.457951	-28.360862	3.5
ODO000059	B.E. Africa, Kenya, Thoura Forest, Meru, 5,500ft.; Mt. Kenya, Thoura Forest, Meru village, 6,000ft; 	Kenya	0.047595	37.643867	12
ODO000060	B.E.Africa, Kenya, Meru, 6,000ft; Kenya, Mt. Kenya, Meru Village, 6,000ft.; 	Kenya	0.047595	37.643867	3
ODO000061	B.N. Borneo, Mt. Kinabalu, Kiau, 3,000 ft.	Borneo	6.021444	116.489465	2
ODO000062	Bababuddin Hills, Mysore 4700'	India	13.495125	75.758611	20
ODO000063	Bahreh, Egypt; L'Oasis de Bahryeh en Egypte; 	Egypt	28.383347	28.909453	1
ODO000064	Baie Ngo; New Caledonia	New Caledonia	-22.147097	166.234921	2.5
ODO000065	Bali	Indonesia	-8.35684	115.080182	75
ODO000066	Bandama River, 40km. N. of Korhogo, Ivory Coast	Cote d'Ivoire	9.808106	-5.737287	9
ODO000067	Bandama River, Ferkessedougou, Ivory Coast; Bandama River; Localities visited were all on a 100 km. stretch of the river curving round the town of Korhogo (9° N. 6° W.), roughly in a quarter-circle to the N.E.; 	Cote d'Ivoire	9.555812	-5.298296	6
ODO000068	Bangkok	Thailand	13.756322	100.614201	40
ODO000069	Bankok, Police Dept. Kohsichang	Thailand	13.16042	100.810131	0.1
ODO000070	Banks Is.; Banks Island, Torres Strait; 	Australia	-10.187091	142.268148	9.5
ODO000071	Banks' Is., N.Q.; Banks Island, Torres Straits; 	Australia	-10.187091	142.268148	9.5
ODO000072	Barberton	South Africa	-25.774878	31.043507	4
ODO000073	Barog, 5000', Simla Hills	India	30.888386	77.078648	1
ODO000074	Basra	Iraq	30.522819	47.759508	18
ODO000075	Batolo Forest, 30m W. Kampala, Uganda; Butolo Forest, 30 miles west of Kampala, Uganda; 	Uganda	0.321172	32.153727	4.5
ODO000076	Belg. Congo, Eala	Democratic Republic of the Congo	0.041705	18.33564	1
ODO000077	Belize, Rio Temash	Belize	15.985647	-89.063129	14
ODO000078	Bellinger R., N.S.W.	Australia	-30.433066	152.729765	32
ODO000079	Bengal, Duars, Hasimara T.E.	India	26.715046	89.364027	15
ODO000080	Bengal, Hasimara, Duars	India	26.715741	89.360863	5
ODO000081	Betsileo, Madag.; Betsileo, Madagascar; 	Madagascar	-21.164562	46.325348	150
ODO000082	Bhagmandala, Coorg	India	12.386592	75.528698	1
ODO000083	Bida, N. Nigeria; Near a stream, Batati, near Bida, Niger Province, Nigeria; 	Nigeria	9.085249	6.005519	3.5
ODO000084	Billabong near Annan R., Cooktown, N.Q.; N. Queensland, Annan River, Cooktown; 	Australia	-15.517776	145.236854	5
ODO000085	Blue Mts., N.S.W.; Leura, Blue Mountains, New South Wales; 	Australia	-33.706923	150.33871	3.5
ODO000086	Bogota	Colombia	4.643484	-74.092023	22
ODO000087	Bolihuloya; Belihul-Oya; 	Sri Lanka	6.718909	80.771323	1
ODO000088	Bolivia: Buenavista, Santa Cruz	Bolivia	-17.45981	-63.664613	2
ODO000089	Borikhane, Laos, Siam	Laos	18.561296	103.721476	1
ODO000090	Borneo; Limbang River; 	Borneo	4.266909	115.063124	70
ODO000091	Borneo, Baram	Borneo	3.76248	114.416076	104
ODO000092	Borneo, Bettotan	Borneo	5.784241	117.849936	4.7
ODO000093	Borneo, Kina Balu	Borneo	6.083333	116.55	10
ODO000094	Borneo, Lio Matu	Borneo	3.170104	115.22006	1.5
ODO000095	Borneo, Mt. Kina Balu	Borneo	6.083333	116.55	10
ODO000096	Borneo, Mt. Merinjak	Malaysia	0.883273	110.516744	10
ODO000097	Borneo, Sarawak, Baram	Borneo	3.76248	114.416076	104
ODO000098	Borneo, Sarawak, Limbang	Borneo	4.266909	115.063124	70
ODO000099	Borneo, Sarawak, Madihit, 2000ft.	Borneo	4.047672	115.176083	16
ODO000100	Borongan, Samat, Philippine Is.	Philippines	11.591572	125.346273	21
ODO000101	Brazil: Matto Grosso, N.E. of Cuyaba, Chapada, Burity. 2250ft.; Brazil: Matto Grosso, N.E. of Cuyaba, Chapada, Burity. 2850ft.; 	Brazil	-15.383291	-55.833333	5
ODO000102	Brazil: Matto Grosso, R. Paraguay, Rio Cuyaba	Brazil	-15.68775	-56.103083	150
ODO000103	Breves, Lower Amazon	Brazil	-2.636515	-66.017197	8
ODO000104	Bridgetown, W.A.	Australia	-33.958043	116.136732	5
ODO000105	Brisbane; Brisbane, Queensland; 	Australia	-27.469393	153.025128	30
ODO000106	Brisbane, Q.; Brisbane, Kedron Brook; 	Australia	-27.412539	153.009512	12
ODO000107	Brit E. Africa, Nandi Plateau. 5700-6200ft.; Kenya Colony, Nandi Plateau, 5700-6200 feet.; 	Kenya	0.227001	35.129483	50
ODO000108	Brit. Caffraria; British Caffraria (S.E. Africa); 	South Africa	-32.526843	27.237832	75
ODO000109	Brit. E. Afr. Nairobi to Ft. Hall Rd., 4,500-5,000 ft.	Kenya	-1.077629	37.044997	38
ODO000110	Brit. Guiana, Tumatumari., R. Potaro	Guyana	5.261505	-59.148411	12
ODO000111	Brit. N. Borneo, Bettotan	Borneo	5.784241	117.849936	4.7
ODO000112	Brit. N. Borneo, Mt. Kinabalu, Kabayau, 600'	Borneo	6.157728	116.460976	2
ODO000113	British Cameroons, Kumba, W.A., Police Stn. stream	Cameroon	4.63205	9.442468	1
ODO000114	British Guiana, Kaieteur, Savannah & environs	Guyana	5.273198	-59.391549	14
ODO000115	British Guiana, Potaro Gorge, Tukeit	Guyana	5.2001	-59.449213	4.5
ODO000116	British Guiana: Essequibo R., Moraballi Creek	Guyana	6.183387	-58.833336	17
ODO000117	British Guiana: New River, 750ft.	Guyana	3.250561	-57.617148	15
ODO000118	Broderick Falls, Scarp: Kenya	Kenya	0.605319	34.762089	1
ODO000119	Bugaba, 800-1,500 ft.	Panama	8.681819	-82.661357	26
ODO000120	Bugalla Is., L. Victoria, Uganda; East Africa, Entebbe; 	Uganda	-0.380986	32.257965	30
ODO000121	Bukit Besar, Jalor N.A; Bukit Besar, Jalor, Malay Peninsula, 2500 ft.; 	Malaysia	5.294095	103.141425	2
ODO000122	Burliya, Nilgiris, 3000'; Burliyar, Nilgiris, 1500 ft.; 	India	11.341488	76.840858	4.5
ODO000123	Burliyar R., Nilgiris, 2500 ft, S. India	India	11.341488	76.840858	4.5
ODO000124	Burma, Maymyo	Myanmar	22.03614	96.469548	8
ODO000125	Burma, Mergui	Myanmar	12.456496	98.625963	6
ODO000126	Burma, Thaton distr., Mokpalin	Myanmar	17.435574	96.888044	1.5
ODO000127	Buru	Indonesia	-3.442238	126.623772	75
ODO000128	Bwake, French Ivory Ct.; Ivory Coast, West Africa; 	Cote d'Ivoire	7.704104	-5.031117	8
ODO000129	Bwamba Forest 2400ft, Fort Portal, Uganda	Uganda	0.650976	30.275829	3.5
ODO000130	Bwamba Forest, 2400ft, Fort Portal, Uganda	Uganda	0.650976	30.275829	3.5
ODO000131	Bwamba Valley, Uganda, 2500'	Uganda	0.734475	30.017828	15
ODO000132	C. AFR. REP: Bouar, Centre d'Elerage	Central African Republic	5.939822	15.596981	2.5
ODO000133	C.G.H.; Cape Colony; Cape of Good Hope	South Africa	-34.358369	18.471848	0.4
ODO000134	C.P., French Hoek; Cape Province: French Hoek Mts.; 	South Africa	-33.899376	19.145581	6
ODO000135	Cache, Costa Rica	Costa Rica	9.825363	-83.803754	1
ODO000136	Cache. Costa Rica	Costa Rica	9.825363	-83.803754	1
ODO000137	Cairns, N.Q.	Australia	-16.930278	145.770278	24
ODO000138	Calafquen, Temuco	Chile	-39.572378	-72.250313	5
ODO000139	Cam Highland, 4000-4500	Malaysia	4.487481	101.470334	17.5
ODO000140	Cam Highlands, 4000-4500	Malaysia	4.487481	101.470334	17.5
ODO000141	Cameroon, Dehane	Cameroon	3.489623	10.072707	4
ODO000142	Cameroons, Bambui	Cameroon	6.050085	10.233333	3
ODO000143	Cameroons, Bamenda	Cameroon	5.969359	10.166275	5.5
ODO000144	Campbellpore	Pakistan	33.771522	72.373134	6.5
ODO000145	Cape Coast Castle; Cape Coast Castle (Guinee); 	Ghana	5.103677	-1.240975	0.1
ODO000146	Cape Good Hope	South Africa	-34.358369	18.471848	0.4
ODO000147	Cape York, N. Queensland	Australia	-10.784123	142.481049	30
ODO000148	Cape York, N.Q.; Cape York, North Queensland; 	Australia	-10.784123	142.481049	30
ODO000149	Cape, Worcester	South Africa	-33.645759	19.449508	7
ODO000150	Caroda, N.S.W.; Rocky Creek, near Caroda; 	Australia	-30.018151	150.365902	2
ODO000151	Ceara; Ceara; Beara	Brazil	-5.260627	-39.659875	320
ODO000152	Celebes	Indonesia	-2	121	600
ODO000153	Central Africa Republic, Near Centre d'Elevage Bouar; Stream on the Bokaranga road, 10 km from Centre d'Elevage, Bouar, Central African Republic; 	Central African Republic	5.939822	15.596981	2.5
ODO000154	Central Africa, Uganda, Kigezi Dist., Birunga Mts., 7,500ft. swamp in bamboo forest	Uganda	-1.383397	29.633209	5
ODO000155	Central Africa, Uganda, Toro Dist., Kibale Forest	Uganda	0.518464	30.414105	20
ODO000156	Central Africa, Uganda, Toro Dist., Kibale Forest, Buzira Sagama; Kibale Forest, Toro Dist., Uganda; 	Uganda	0.518464	30.414105	20
ODO000157	Central Africa, Uganda, Toro Dist., Kibale Forest, Buzirasagama; Kibale Forest, Toro Dist., Uganda; 	Uganda	0.518464	30.414105	20
ODO000158	Central Africa, Uganda, Toro Dist., Kibale Forest, deep forest	Uganda	0.518464	30.414105	20
ODO000159	Central African Republic, near-centre d'Elevage Bouar; Stream on the Bokaranga road, 10 km from Centre d'Elevage, Bouar, Central African Republic; 	Central African Republic	5.939822	15.596981	2.5
ODO000160	Centrl Africa, Uganda, Bunyoro Dist., Budongo Forest, Nyamagita Dam	Uganda	1.656628	31.527895	5
ODO000161	Ceylon, 4. miles above Belihul Oya	Sri Lanka	6.776737	80.769039	3
ODO000162	Ceylon, Cent. Province, Peradeniya	Sri Lanka	7.265074	80.598922	2
ODO000163	Ceylon, Djatalawa, 5000 ft.; Dyatalawa, 5,000 feet, Ceylon; 	Sri Lanka	6.806952	80.958178	2.5
ODO000164	Ceylon, Haragama; Ceylon: Harigama; 	Sri Lanka	7.249297	80.722625	2
ODO000165	Ceylon, Haycock Hill; Kottawa; 	Sri Lanka	6.333141	80.300043	1
ODO000166	Ceylon, Kandy	Sri Lanka	7.290628	80.633849	6
ODO000167	Ceylon, Kandy Lake; Kandy Lake, Ceylon; Ceylon, Kandy Lake	Sri Lanka	7.290994	80.641959	1
ODO000168	Ceylon, Kandy, 2000'	Sri Lanka	7.290628	80.633849	6
ODO000169	Ceylon, Kottawa; Kottawa; Kottawa	Sri Lanka	6.102626	80.317483	2
ODO000170	Ceylon, Pettiagalla	Sri Lanka	6.651557	80.645713	5
ODO000171	Ceylon, Pundaloya	Sri Lanka	7.009966	80.661708	2
ODO000172	Ceylon, Trincomalee	Sri Lanka	8.590676	81.214246	6
ODO000173	Ceylon, Urugalla, 3000'	Sri Lanka	7.316742	80.865685	12
ODO000174	Ceylon: Nawala-pitiya	Sri Lanka	7.033982	80.521931	5
ODO000175	Ceylon; Hot Wells, Trincomali	Sri Lanka	8.604706	81.171297	0.5
ODO000176	Ceylon; Trincomali	Sri Lanka	8.590676	81.214246	6
ODO000177	Chairo, Bolivia	Bolivia	-16.203429	-67.836749	2
ODO000178	Cherrapunji, Khasia Hills, Assam, 6000'	India	25.270286	91.732245	5
ODO000179	Chevayur, Malabar	India	11.272165	75.824801	1.2
ODO000180	Chibudzana R., Meisetter Dist. Dept. Agric., S. Rhodesia	Zimbabwe	-20.257444	32.832799	5
ODO000181	Chibudzana R., Meisetter Dist., Dept Agric. S. Rhodeisa	Zimbabwe	-20.257444	32.832799	5
ODO000182	Chibudzana R., Melsetter Dist. Dept. Agric., S. Rhodesia	Zimbabwe	-20.257444	32.832799	5
ODO000183	CHILE, Villa Alemana	Chile	-33.050694	-71.364904	4
ODO000184	China: Guangdong, Guangzhou: Zhong Shan University	China	23.097938	113.294758	1
ODO000185	Chirgui; Chiriqui; 	Panama	8.376878	-82.29492	12
ODO000186	Chirinda For., Gazall, 3600ft.; Chirinda Forest, Gazaland, 3600 ft.; 	Zimbabwe	-20.40989	32.699706	5
ODO000187	Chirinda For., Meisetter Dist. Dept. Agric., S. Rhodesia	Zimbabwe	-20.40989	32.699706	5
ODO000188	Chirinda Forest, Garald 4000ft.	Zimbabwe	-20.40989	32.699706	5
ODO000189	Concordia, R.A.; Argentine: Concordia; 	Argentina	-31.380338	-58.040744	6
ODO000190	Concordia. Argentine; Argentina: Concordia; 	Argentina	-31.380338	-58.040744	6
ODO000191	Cooktown, N.Q.	Australia	-15.476068	145.247128	75
ODO000192	Coonoor, Nilgiris, 6000 ft.	India	11.35	76.795417	3.2
ODO000193	Coorg, Fraserpet Cauvery	India	12.308532	75.843039	35
ODO000194	Corrientes; Goya, Corrientes, Argentine Republic; 	Argentina	-27.483785	-58.804405	8
ODO000195	Costa Rica, Guanacaste Prov., SW side of Volcan Cacao Est. Mengo, 1100m.	Costa Rica	10.933758	-85.448246	4
ODO000196	Costa Rica, Sequirres, Limon; Costa Rica, Limon, Siquirres; 	Costa Rica	10.099571	-83.50755	2
ODO000197	Costa Rica: Alajuela Prov., 8km S. St. Cecilia, Est. Pitilla, 680m; Costa Rica, Alajuela Province, 8 km S Santa Cecilia, Estacion Pitilla, 680 m.; 	Costa Rica	10.880711	-85.056018	1
ODO000198	Costa Rica: Guanacaste Prov., SW side Volcan Cacao, Est. Mengo, 1100m; Costa Rica, Guanacaste Province, SW side Volcan Cacao, Estacion Mengo, 1100 m.; 	Costa Rica	10.933758	-85.448246	4
ODO000199	Cradle Mt., Tas.; Cradle Mountain, North West Tasmania; 	Australia	-41.744866	145.983643	28
ODO000200	Cressy, Tas.; ; Tas[mania], Cressy	Australia	-41.780976	147.096027	18
ODO000201	Cubilguitz, Vera Paz; Guatemala, Cubilguitz in Vera Paz; 	Guatemala	15.667349	-90.429397	0.2
ODO000202	Cuenca; ; Cuenca	Equador	-2.889867	-78.987151	8
ODO000203	Cumbum, Madura Dist.; Madura District, South India; 	India	9.736169	77.283267	2.5
ODO000204	Dahamis, Sokotra	Uganda	12.625371	54.121863	0.4
ODO000205	Damas; Syrie, Damas; 	Syria	33.510029	36.293258	9
ODO000206	Darjeeling	India	27.033343	88.261928	5
ODO000207	David, Panama	Panama	8.410773	-82.427834	10
ODO000208	Dawn Ton, N.E. Siam	Thailand	16.251554	104.723965	50
ODO000209	Delagoa Bay	Mozambique	-25.969544	32.575569	50
ODO000210	Demerara; Demerara, (Guyane); 	Guyana	5.796098	-58.387805	120
ODO000211	Devalashola, Nilgiri Wynaad, S. India; Devalashola, Nilgiri Wynaad; 	India	11.542639	76.440983	2.5
ODO000212	Dilkhoosh, Cachar	India	24.77785	93.020676	1.5
ODO000213	Dobar, Goolis Mts.	Somalia	9.867842	44.916558	45
ODO000214	Dorrigo, N.S.W.	Australia	-30.333456	152.713484	8
ODO000215	Dutch New Guinea.; Snow Mts., 4,000 to 6,000 ft.; Dutch New Guinea, Utakwa River, 4000-6000 ft.; 	Indonesia	-3.999871	137.999957	1
ODO000216	E. Africa, Uganda, W. shore of L. Victoria	Uganda	-0.966331	31.787475	170
ODO000217	E. Africa, Uganda, W. shore of Lake Victoria	Uganda	-0.966331	31.787475	170
ODO000218	E. Nigeria, Obudu; Nigeria: Obudu Plateau, 6° 30' N., 9° 20' E.; 	Nigeria	6.662543	9.175667	3
ODO000219	E. Peru ?, Rio Napo	Peru	-2.254021	-74.07099	195
ODO000220	E. Ruwenzori, 5-7,000 ft.	Uganda	0.455795	29.997864	55
ODO000221	East Africa, Buganda; Along the tributaries of the Nile in Buganda, East Africa; 	Burundi	-2.965504	29.192574	4.5
ODO000222	Eastern Mergui, Lower Burma	Myanmar	12.463363	98.646569	3
ODO000223	Ebor, N.S.W.; Ebor, New South Wales; N[ew] S[outh] W[ales], Ebor	Australia	-30.412978	152.316432	15
ODO000224	Ecuador; Quito, Republique de l'Equateur; 	Ecuador	-0.182801	-78.448442	26
ODO000225	Ecuador, Intaj; Ecudor, Intaj (or Intac); 	Ecuador	0.133333	-78.833333	25
ODO000226	El Reposo, Guatemala; Guatemala, El Reposo, Pacific coast-region; 	Guatemala	14.156926	-91.223363	10
ODO000227	El Salto, Valparaiso; El Salto, province de Valparaiso (Chili); 	Chile	-33.039332	-71.521511	1.5
ODO000228	Entebbe, L. Victoria, Uganda	Uganda	0.051243	32.464207	5
ODO000229	Entebbe, Uganda; ; Uganda, Entebbe, Lake Victoria	Uganda	0.051243	32.464207	5
ODO000230	Ethiopia, Nr. Cencia, 8000'	Ethiopia	6.241401	37.417291	18
ODO000231	Ethiopia: Segheria	Ethiopia	6.52274	38.883231	3.5
ODO000232	F.M.S., Kedah Catchment area, near Jitra	Malaysia	6.318665	100.438937	20
ODO000233	Fed. Malay States, Bettatan; Bettotan; 	Malaysia	5.784241	117.849936	4.7
ODO000234	Fernand Vaz.; Africa occidentali; 	Gabon	-1.592357	9.429057	6
ODO000235	Fernando Po: Moka	Equatorial Guinea	3.349804	8.666666	2.5
ODO000236	Fianarantsoa, Madagascar	Madagascar	-21.450235	47.088004	6
ODO000237	Florida, S.E. Colombia	Colombia	3.321763	-76.23682	1.5
ODO000238	Foo Chow	China	26.054423	119.223295	100
ODO000239	Fort Johnson, Nyasaland	Malawi	-14.48359	35.252294	2.5
ODO000240	Fort Johnston, Nyassaland	Malawi	-14.48359	35.252294	2.5
ODO000241	Free Town, Sierra Leone	Sierra Leone	8.469214	-13.22374	10
ODO000242	French Guiana: St. Laurent.	French Guiana	5.484167	-54.022307	4
ODO000243	Fronterita Tuc, Deo. Famailla; ; Tuc[uman], Dep. Famailla, Fronterita	Argentina	-27.030934	-65.460375	1.5
ODO000244	Fuluason R. above Mooris Dam	Samoa	-13.849664	-171.797565	3
ODO000245	Gabmetzung, 20 miles up Markham River,; Germ. New Guinea: Huon Gulf	Papua New Guinea	-6.577737	146.758741	3
ODO000246	Gabon: L.Asebbe, Fernan-Vaz	Gabon	-1.592357	9.429057	6
ODO000247	Galapagos; Galapagos Islands; 	Ecuador	-0.525707	-90.363294	150
ODO000248	Gangtok, Sikkim; British Sikkim, Gangtok, 5,000 to 6,000ft.; 	India	27.340434	88.612235	5.5
ODO000249	Garo Hills, Assam, 1400ft; Garo Gills, Tura, Assam, 1,500 ft.; 	India	25.500038	90.333333	2
ODO000250	Gauhati	India	26.139214	91.703564	19
ODO000251	Gigbema, Sierra Leone	Sierra Leone	8.10622	-10.64218	1
ODO000252	Gil.; Gilolo; Gilolo	Indonesia	0.633196	127.879758	180
ODO000253	Gilolo	Indonesia	0.633196	127.879758	180
ODO000254	Gisborne, Vic.; ; Vic[toria], Gisborne	Australia	-37.490021	144.59058	3
ODO000255	Gok Teik, Burma; Maymyo, North Shan States, Upper Burma; 	Myanmar	22.346581	96.918082	1.5
ODO000256	Gokteik, 1,500 ft.; Gokteik, N. Shan States, Burma; 	Myanmar	22.346581	96.918082	1.5
ODO000257	Gold Coast, Aburi	Ghana	5.849065	-0.173207	2.5
ODO000258	Gold Coast, N. Territories, Yapi	Ghana	9.162292	-1.167358	0.5
ODO000259	Gopaldhara; King Island, Mergui, Lower Burma; Gopaldhara		26.927643	88.152282	2.5
ODO000260	Gopaldhara, Assam	India	26.927643	88.152282	2.5
ODO000261	Gopaldhara, Bengal	India	26.927643	88.152282	2.5
ODO000262	Grand Sable (Windward); St. Vincent, "Grand Sable, Windward"; 	St. Vincent and The Grenadines	13.265707	-61.118309	1
ODO000263	Groot Drakenstein, Cape Province; Cape Province: Berg River at Groot Drakenstein; 	South Africa	-26.04996	29.68329	5
ODO000264	Guadalajara, Jalisco; Mexico, Guadalajara; 	Mexico	20.674734	-103.337811	10
ODO000265	Gudalur, 4500 ft.	India	11.505114	76.488661	2.5
ODO000266	Gudalur, Nilgiris, 3500", S. India; Nilgiri Wynaad, 3000 ft.; 	India	11.505114	76.488661	2.5
ODO000267	Gudalur, Nilgiris, Pandy R.; Gudalur, Nilgiri Wynaad, 3,500 feet.; 	India	11.505114	76.488661	2.5
ODO000268	Gunong Kledang, Perak, 2646'	Malaysia	4.593932	101.014957	2
ODO000269	Gurupa, Lower Amazon	Brazil	-1.409535	-51.643172	1
ODO000270	Hainan, 5-fingered Mt.	China	18.898373	109.704167	5
ODO000271	Hainan, Mt. Wuchi	China	18.898373	109.704167	5
ODO000272	Haldibari, T.E., Duars, Brufal; Huldibari Tea Estate, Duars, Bengal; 	India	26.744463	89.021823	3
ODO000273	Hallery, Coorg	India	12.444699	75.786443	1
ODO000274	Hasimara T.E., Duars, Bengal	India	26.715046	89.364027	15
ODO000275	Hasimara, Duars; Hasimara, Duars, Bengal; 	India	26.715741	89.360863	5
ODO000276	Hasimara, Duars, Bengal; Hasimara Tea Estate, Duars, Bengal; 	India	26.715046	89.364027	15
ODO000277	Hasimara, T.E., Duars, Bengal	India	26.715046	89.364027	15
ODO000278	Hassan Abdal; N W Ind; Hassan Abdal; 	Pakistan	33.822723	72.678596	3
ODO000279	Hat Kam, Laos, Wiangchan; Hat Kam, Wiengchan, Laos; 	Laos	18.6554	103.5891	0.3
ODO000280	Hawaiian Island, Lihue, Kauai	United States of America	21.975111	-159.355497	3.5
ODO000281	Hawaiian Islands	United States of America	21.158101	-157.105501	340
ODO000282	Hawaiian Islands, Halemano, Oahu, 2000 ft; Halemano Oahu, above 2000 ft.; 	United States of America	21.524127	-158.018836	2.5
ODO000283	Hawaiian Islands, Halemanu, Kauai, 4000 ft; Mountains of Kauai (4000 ft.); 	United States of America	22.115832	-159.673056	2
ODO000284	Hawaiian Islands, Honolulu, Oahu, 3000 ft.	United States of America	21.317686	-157.803205	16
ODO000285	Hawaiian Islands, Kau, 4000 ft.	United States of America	19.216896	-155.523022	25
ODO000286	Hawaiian Islands, Kona, 3000 ft	United States	19.548652	-155.849999	40
ODO000287	Hawaiian Islands, Lihue, Kauai; Kauai (about 1000ft.); 	United States of America	21.975111	-159.355497	3.5
ODO000288	Hawaiian Islands, Molokai Mts., 4000 ft; Molokai (3000-4000 ft.); 	United States of America	21.13634	-157.004724	32
ODO000289	Hawaiian Islands, Puna	United States of America	19.493781	-155.009689	21
ODO000290	Hawaiian Islands, Waianae Mts., Oahu, 2000 ft; Waianae Mts., Oahu (2000-3000 ft.); 	United States of America	21.51	-158.15	4
ODO000291	Hawaiian Islands, Waianae Mts., Oahu,2000 ft	United States of America	21.51	-158.15	4
ODO000292	Hawaiian Islands, Waimea, Kauai, 4000; Mountains of Kauai (4000 ft.); 	United States of America	21.961506	-159.672465	2.2
ODO000293	Hawaiian Islands, Waimea, Kauai, 4000 ft	United States of America	21.961506	-159.672465	2.2
ODO000294	Hawaiian Islands, West Maui Mts., 4000 ft	United States	20.880374	-156.55458	3
ODO000295	Hellesoi's Paddock, Apia, W. Samoa, 1600'	Samoa	-13.850241	-171.752021	7
ODO000296	Herberton	Australia	-17.3813	145.3838	4.5
ODO000297	Hill stream near Kagoro, Nigeria	Nigeria	9.618868	8.405105	6
ODO000298	Himalaya		29.450144	84.243744	1300
ODO000299	HONGKONG Mt. Butler	Hong Kong	22.267898	114.211185	0.3
ODO000300	HONGKONG Yuen Tun Ha	Hong Kong	22.427097	114.159474	1
ODO000301	HongKong, Tai Tong	Hong Kong	22.418088	114.035321	2.5
ODO000302	Hori, Formosa	Taiwan	23.979625	120.963301	11
ODO000303	Hornsby, N.S.W.; Hornsby, New South Wales; 	Australia	-33.698067	151.097519	2.5
ODO000304	Huddamulla; Ceylon	Sri Lanka	6.868005	79.913218	2
ODO000305	Huntse R., Coorg, Mysore; Hunse, Mysore; 	India	12.308805	76.28779	3
ODO000306	Ibadan, Nigeria	Nigeria	7.396389	3.916667	18
ODO000307	Ibadan, SO Nigeria	Nigeria	7.396389	3.916667	18
ODO000308	Illawarra, N.S.W.; Heathcote, Illawarra Line, New South Wales; 	Australia	-34.523747	150.839158	6
ODO000309	India, Assam, Shillong, 5000 ft.	India	25.58547	91.890374	9
ODO000310	India, Bengal, Darjeeling Dist.	India	27.033343	88.261928	5
ODO000311	India, Bengal, Duars, Hasimara	India	26.715741	89.360863	5
ODO000312	India, Bengal, Hasimara, Duars	India	26.715741	89.360863	5
ODO000313	India, Bombay, Vihar Lake; Vihar Lake, near Bombay; 	India	19.152953	72.910735	2
ODO000314	India, Coorg, Makut; Makut, Coorg, 250 feet; 	India	12.080083	75.729818	0.6
ODO000315	India, Coorg, Sampaji	India	12.493402	75.566337	2
ODO000316	India, Coorg, Sampaji Ghat	India	12.493402	75.566337	2
ODO000317	India, Darjeeling Distr., Near Mangpu, 3400'	India	26.974288	88.357973	1
ODO000318	India, Darjeeling, Tarzum Tea Estate	India	26.942117	88.17204	1.5
ODO000319	India, Hasimara, Duars; Hasimara Tea Estate; 	India	26.715741	89.360863	5
ODO000320	India, Mahableshwar, 4500 ft.	India	17.926229	73.648524	3
ODO000321	India, Mahableshwar, 4500.	India	17.926229	73.648524	3
ODO000322	India, Mahableshwar.	India	17.926229	73.648524	3
ODO000323	India, Nilgiri, Wynaad Nadgani, 3000 ft	India	11.472526	76.409641	1.5
ODO000324	India, Nilgiris, Gudalur	India	11.505114	76.488661	2.5
ODO000325	India, Nilgiris, Gudalur, 3000'.	India	11.505114	76.488661	2.5
ODO000326	India, Nilgiris, Nadgani; Nilgiri Wynaad; Nilgiri Wynaad, Nadgani	India	11.472526	76.409641	1.5
ODO000327	India, Nilgris, Masnagudi	India	11.570722	76.642095	1
ODO000328	India, Poona; ; India, Poona	India	18.5223	73.860268	13
ODO000329	India, Pusa	India	25.978046	85.648725	0.5
ODO000330	India, Sonder Bhandara, Cent. Prov.	India	21.172036	79.653179	4
ODO000331	India, Turzum, Darjeeling Dt.	India	26.94703	88.175446	0.5
ODO000332	India: Coorg, Cannamore Ghat	India	11.867399	75.370464	2
ODO000333	India: Darjeeling distr., Gangtok; Gangtok, Darjeeling District; 	India	27.340434	88.612235	5.5
ODO000334	India: Gudalur, Nilgiris	India	11.505114	76.488661	2.5
ODO000335	India: Gudalur, Nilgiris 3500'	India	11.505114	76.488661	2.5
ODO000336	India: Hunso R., Mysore; Hunse, Mysore; 	India	12.308805	76.28779	3
ODO000337	India: Nilgiris 3-4500ft	India	11.4	76.7	60
ODO000338	India: Nilgiris, Nadgani, 3000ft, Ghat; Nadgani Ghat, Nilgiri Wynaad; 	India	11.472526	76.409641	1.5
ODO000339	India; Hasimara, Duars, Bengal	India	26.715741	89.360863	5
ODO000340	Innisfail, Nth. Queensland	Australia	-17.52656	146.025404	3
ODO000341	Intaj [=maybe Intag river?], Ecuador	Ecuador	0.330403	-78.541867	2.5
ODO000342	Intaj, Ecuador	Ecuador	0.330403	-78.541867	2.5
ODO000343	Iquitos, Peru; Peru: Katzenbach (Mishuyacu), 15 km. v. Iquitos; 	Peru	-3.762506	-73.269579	8
ODO000344	Irazu, 6-7000 ft.; Costa Rica, Volcan de Irazu 6000-7000 feet; 	Costa Rica	9.980087	-83.849206	2
ODO000345	Irazu, 6-7000ft.	Costa Rica	9.980087	-83.849206	2
ODO000346	Irazu. 6-7000 ft.; Mt. Irazu (at an elevation of between 6000 and 7000 feet); 	Costa Rica	9.980087	-83.849206	2
ODO000347	Italy, Rome, Acilia	Italy	41.78418	12.36404	1
ODO000348	Jal. nr Gana wari, N. Nigeria	Nigeria	9.675103	8.63619	8.5
ODO000349	Jalor, F.M.S., Bukit Besar, 2500 ft.	Malaysia	5.294095	103.141425	2
ODO000350	Japan; Japon, a Yokahama; 	Japan	35.454305	139.574472	16
ODO000351	Japan, Nikko; Japan, Nikko, ca. 3000 ft.; 	Japan	36.826184	139.59377	35
ODO000352	Jaruqui, Ecuador; Ecuador, Prov. Pichincha, Jaruqui; 	Ecuador	-0.166116	-78.3157	1.5
ODO000353	Java; Java; 	Indonesia	-7.567254	110.702351	600
ODO000354	Jemaa, N. Nigeria; lower Assob River, near Jemaa, (1900 ft.); 	Nigeria	9.460323	8.389283	1
ODO000355	Jemaa, Nigeria	Nigeria	9.460323	8.389283	1
ODO000356	Johore, Pulau Tioman, Sedagong	Malaysia	2.796728	104.168351	11
ODO000357	Jor Pahang	Malaysia	3.253835	103.070606	250
ODO000358	Ka Yima, Sierra Leone	Sierra Leone	8.887446	-11.160521	1
ODO000359	Kadugannawa, Ghat, Kandy, Ceylon; ; Kadugannawa Ghat, Kandy, Ceylon	Sri Lanka	7.256098	80.516647	1.25
ODO000360	Kaieteur; British Guiana	Guyana	5.273655	-59.392657	30
ODO000361	Kalar, Nilgiris 1520'; Kallar, Nilgiris about 1,000 ft.; 	India	11.342476	76.8679	2
ODO000362	Kalaw, Chin Hills; Kalaw, Chin Hills, Burma; 	Myanmar	20.625612	96.563623	2.5
ODO000363	Kalaw, S. Shan States, Burma	Myanmar	20.625612	96.563623	2.5
ODO000364	Kalaw, S. Shan Sts.; Burma, Kalaw, S. Shan States; 	Myanmar	20.625612	96.563623	2.5
ODO000365	Kallar, 1500', Nilgiris; ; Kallar, 1,500', Nilgiris, S. India	India	11.342476	76.8679	2
ODO000366	Kalukembe; Angola	Angola	-13.784563	14.685727	4
ODO000367	Kalukembe; Angola, Miss. sc. suisse	Angola	-13.784563	14.685727	4
ODO000368	Kamagbonse, Sierra Leone	Sierra Leone	9.571565	-12.17238	20
ODO000369	Kambove, Katanga, 4,000-5,000 ft.; Belgian Congo: Katanga, Kambove, 4000-5000 ft.; 	Democratic Republic of the Congo	-10.875669	26.598112	3
ODO000370	Kamerunga, N.Q.; Kuranda, North Queensland; 	Australia	-16.87673	145.687847	2.5
ODO000371	Kampala, Uganda	Uganda	0.317492	32.596032	13
ODO000372	Kandy, Cejlon; Ceylon, Kandy, 2,000 ft.; 	Sri Lanka	7.290628	80.633849	6
ODO000373	Kandy, Ceylon; ; Kandy, Ceylon	Sri Lanka	7.290628	80.633849	6
ODO000374	Kandy; Ceylon	Sri Lanka	7.290628	80.633849	6
ODO000375	Katera Forest. Masaka, Uganda	Uganda	-0.893889	31.722778	20
ODO000376	Katera, Sango Bay, Uganda	Uganda	-0.894736	31.722985	5
ODO000377	Katimbora, Zambezi, N.R.	Zambia	-17.83542	25.393758	2
ODO000378	Katzenbach (Mishuyaca), 15 km. v. Iquitos, Peru	Peru	-5.896786	-76.102982	0.1
ODO000379	Katzenbach (Mishuyacu) 15 Km. v. Iquitos, Peru	Peru	-5.896786	-76.102982	0.1
ODO000380	Kedai Kanal, Palnai Hills, S. India	India	10.217302	77.40348	8.5
ODO000381	Khanaqin, Iraq; Iraq: Khanagin, Alwand River, 34°20'N 45°26' E; 	Iraq	34.333333	45.433333	4.5
ODO000382	Khasi Hills; ?Assam, Khasia Hills; 	India	25.604061	91.45192	65
ODO000383	Khasi Hills, Shillong	India	25.58547	91.890374	9
ODO000384	Khasia Hills; Khasia Hills; 	India	25.583564	91.633076	24
ODO000385	Khasis; 5000 ft., Shillong	India	25.58547	91.890374	9
ODO000386	Kiambere, Dt. Upper Tana R., Kenya. 3500'.	Kenya	-0.684484	37.792961	8
ODO000387	Killarney, S.Q.; Killarney, South Queensland; 	Australia	-28.345652	152.298357	7.5
ODO000388	Kimboza Forest, Uluguru Mts., T.T.; Kimboza Forest, Uluguru Mountains, Tanga Territory; 	Tanzania	-7.02996	37.773798	3
ODO000389	Kina Balu, Borneo	Borneo	6.083333	116.55	10
ODO000390	Kina Balu., British North Borneo	Borneo	6.083333	116.55	10
ODO000391	KinaBalu., British North Borneo	Borneo	6.083333	116.55	10
ODO000392	King Island, Mergui	Myanmar	12.497159	98.36769	20
ODO000393	Kodai Kanal, Palnai Hills	India	10.217302	77.40348	8.5
ODO000394	Kodai Kanal, Palnai Hills, S. Ind.	India	10.217302	77.40348	8.5
ODO000395	Kodai Kanal, Palni Hills, S. Ind.	India	10.217302	77.40348	8.5
ODO000396	Kodaikanal, Palnai Hills, S.India	India	10.217302	77.40348	8.5
ODO000397	Kodaikanal, Palni Hills	India	10.217302	77.40348	8.5
ODO000398	Koolpenyah, N.T.; Koolpinyah, Northern Territory; 	Australia	-12.371496	131.221202	27
ODO000399	Koraput Ghat, Jaipur, 2000'; Koraput, Vizagapatam, 2,000ft.; 	India	18.812675	82.711644	2
ODO000400	Kosciusko, N.S.W.	Australia	-36.455896	148.263556	3
ODO000401	Kotagiri Ghat, Nilgiris, S. India	India	11.4218	76.861696	1
ODO000402	Kuala Tahan, Pahang, F.M.S., 300'; Pahang: Kuala Tahan, 500'; 	Malaysia	4.369953	102.402753	2.3
ODO000403	Kufri, Simla, 8400'; Kufri, Simla States, 8,400 ft.; 	India	31.099733	77.266964	1.5
ODO000404	Kumaon, Muktesar, 7500 ft.	India	29.470162	79.652166	2.5
ODO000405	Kunnoth, Malabar, S. India; Kunnoth, N. Malabar; 	India	12.026236	75.708364	0.5
ODO000406	Kuranda; Queensland, Kuranda; 	Australia	-16.8197	145.6369	10
ODO000407	Kuranda, N.Q.	Australia	-16.8197	145.6369	10
ODO000408	Kurseong, 6000 ft	India	26.883042	88.28335	3
ODO000409	Kurseong, Sikkim, N. India; ; Kurseong, Sikkim	India	26.883042	88.28335	3
ODO000410	Kuru Plantation, Vom, N.Nigeria	Nigeria	9.725565	8.834401	1.5
ODO000411	L. Victoria, Uganda; Uganda, shores of Lake Victoria; 	Uganda	0.098352	32.628779	150
ODO000412	La Chorrera, Panama; La Chorrera, about 20 miles north of Panama; 	Panama	8.878919	-79.778766	7
ODO000413	Labuan; Labuan (Borneo); 	Malaysia	5.315395	115.218742	10
ODO000414	Labuan, Borneo	Malaysia	5.315395	115.218742	10
ODO000415	Lagos	Nigeria	6.531642	3.286015	24
ODO000416	Lake Chila, Abercorn N.R.; ; N[orthern] R[hodesia], Abercorn, Lake Chila	Zambia	-8.835598	31.386983	1
ODO000417	Lake Chila, Abercorn N.Rhodesia	Zambia	-8.835598	31.386983	1
ODO000418	Lake Chila, Abercorn, N.R.	Zambia	-8.835598	31.386983	1
ODO000419	Lake Chila, Abercorn, N.Rhodesia	Zambia	-8.835598	31.386983	1
ODO000420	Lake Tanganyika; Kambole; Northern Rhodesia: Kambole, Lake Tanganyika; 	Zambia	-8.813694	31.035433	5
ODO000421	Lake Victoria, Entebb, Uganda	Uganda	0.051243	32.464207	5
ODO000422	Langbiang Prov., Siam-Annam frontier; Chet Ton; 	Thailand	11.833333	108.166667	80
ODO000423	Laos, Muang Baw	Laos	18.663611	103.47559	28
ODO000424	Laos, Muang Cha, 1,100 m.	Laos	19.004455	103.358583	20
ODO000425	Laos, Muang Cha, 1100m.	Laos	19.004455	103.358583	20
ODO000426	Laos, Taweing, 500m.	Laos	18.99302	103.36033	20
ODO000427	Lawas	Malaysia	4.467718	115.47807	55
ODO000428	Lifu; Loyalty Islands, Lifu; 	New Caledonia	-20.946739	167.234261	32
ODO000429	Loimwe, S. Shan Sts., 5600ft, Burma	Myanmar	21.17157	99.752898	0.8
ODO000430	Lombok, Sapit 2000'	Indonesia	-8.463438	116.552018	6
ODO000431	Lombok, Sapit, 2000'	Indonesia	-8.463438	116.552018	6
ODO000432	Lower Burma: King Island, Mergui	Myanmar	12.497159	98.36769	20
ODO000433	Lunda; Angola, Miss. sc. suisse	Angola	-6.316667	13.983376	14
ODO000434	Luzon; Ile de Lucon; 	Philippines	14.859535	120.909907	435
ODO000435	Lyallpur, Punjab	Pakistan	31.420484	73.094102	18
ODO000436	M'. Batu Lawi	Indonesia	3.866667	115.383333	3
ODO000437	Macapa, Lower Amazon	Brazil	0.036322	-51.070622	8
ODO000438	Macedon, Vic.; Mount Macedon, Victoria; 	Australia	-37.393996	144.596018	4.5
ODO000439	Madagasc., Tamatave	Madagascar	-18.129104	49.390328	7
ODO000440	Madagascar; Madagascar, Mandritsara; 	Madagascar	-15.853066	48.83437	3
ODO000441	Madagascar, Betsileo	Madagascar	-20.810037	46.638969	115
ODO000442	Madi Opei, Acholi, Uganda	Uganda	3.604357	33.087601	0.6
ODO000443	Madras, Burliyar, Nilgiri Hills	India	11.341387	76.84049	4.5
ODO000444	Madras, Coonoor, 6000'.	India	11.3526	76.789555	3.2
ODO000445	Madras, Gudalur, Nilgiri Hills, 4500'	India	11.505114	76.488661	2.5
ODO000446	Madugoda, Ceylon; Madugoda near Urugalla, Ceylon; Madugoda, Ceylon	Sri Lanka	7.31583	80.87583	0.5
ODO000447	Mafuga Rain Forest, Kigezi, Uganda, 7500-8000	Uganda	-1.05	29.866667	5
ODO000448	Mak.; Celeb.; Makian; Makassar, Celebes	Indonesia	-5.143913	119.458176	12
ODO000449	Malaba Forest, Kabras, K.C.; Malaba Forest, Kabras, Kenya Colony; 	Kenya	0.460117	34.85779	2
ODO000450	Malaba Forest, Kabras, K.C.; Kenya Colony	Kenya	0.460117	34.85779	2
ODO000451	Malay Penin: Pahang, F.M.S., Fraser's Hill, 4200'	Malaysia	3.710981	101.740282	4
ODO000452	Malay Peninsula: Pahang, Gunong Tahan; Malay Peninsula, Pahang, Gunong Tahan alt. 1000 ft.; 	Malaysia	4.633051	102.234883	20
ODO000453	Malaya, Butterworth, Garden	Malaysia	5.435975	100.401651	7
ODO000454	Malaya, Kuala Lumpur; Federated Malay States, Kuala Lumpur; 	Malaysia	3.140553	101.694529	12
ODO000455	Malaya, Wellesley, Bukit Mertajam reservoir	Malaysia	5.384128	100.507308	1.3
ODO000456	Malaya: Cameron Highlands Rd, Nr Ramaswami Waterfall, 14th mile, 1,100 ft	Malaysia	4.324428	101.324912	4
ODO000457	Maldives, Hulule	Maldives	4.1875	73.5292	2
ODO000458	Maleny, Q.	Australia	-26.761938	152.85424	4.5
ODO000459	Malololei, Upolu, W. Samoa; ; W. Samoa, Upolu Is., Malololelei	Samoa	-13.912988	-171.734874	1
ODO000460	Manado	Indonesia	1.477662	124.849017	8
ODO000461	Manaos, Brazil	Brazil	-3.062126	-59.995036	20
ODO000462	Manar, Travancore, W. Ghat; Travancore, Western Ghat out from Manar, alt. c. 3500 ft.; Manar, Travancore, W. Ghats, S. India	India	9.315984	76.535804	1.5
ODO000463	Mangphu, 5200 feet; Mangpu, Darjiling District, 5,200 feet.; 	India	26.975722	88.369389	1
ODO000464	Mangpu; Mangpu, Darjiling District, 3,860 feet; 	India	26.975722	88.369389	1
ODO000465	Mangpu, Darjeeling	India	26.975722	88.369389	1
ODO000466	Mannar Gt., Travancore; at altitudes of 3,000-4,000 ft.; 	India	9.315984	76.535804	1.5
ODO000467	Margaret R., W.A.	Australia	-33.966771	115.053331	5.5
ODO000468	Margherita	India	27.291986	95.671338	2.5
ODO000469	Mashonaland, Mazoe, 4000 ft., Mashonaland	Zimbabwe	-17.507301	30.975894	1
ODO000470	Masnagudi, Nilgiri Hills	India	11.570957	76.642041	1
ODO000471	Matang Road, Sarawak	Malaysia	1.573142	110.269813	6.5
ODO000472	Matuna For., 20m. W. Kampala, Uganda; Matuna Forest, 20 miles west of Kampala, Uganda; 	Uganda	0.319479	32.297316	4
ODO000473	Mauritius, Les Mares	Mauritius	-20.430269	57.491464	0.5
ODO000474	Mauritius, Moka	Mauritius	-20.25	57.566667	12
ODO000475	Maymyo, Burma; Maymyo, N. Shan States, Upper Burma; 	Myanmar	22.033479	96.468198	7
ODO000476	Maymyo, N. Shan Sts.	Myanmar	22.033479	96.468198	7
ODO000477	Maymyo, N. Shan Sts. U. Burma; Upper Burma, N. Shan States, Maymyo; 	Myanmar	22.033479	96.468198	7
ODO000478	Maymyo, Upper Burma	Myanmar	22.033479	96.468198	7
ODO000479	Mazaruni; British Guiana	Guyana	5.954524	-59.31005	90
ODO000480	Mekong Valley, Yunnan; a tributary valley of the Mekong; 	China	25.130927	99.494842	430
ODO000481	Melbourne	Australia	-37.817673	144.968721	70
ODO000482	Men.; Menado, Celebes; 	Indonesia	1.477662	124.849017	8
ODO000483	Menado; Menado (Celebes); 	Indonesia	1.477662	124.849017	8
ODO000484	Mergui; King Island, Mergui, Burma; 	Myanmar	12.456496	98.625963	6
ODO000485	Mergui, King Island; King Island, Mergui, Lower Burma; 	Myanmar	12.497159	98.36769	20
ODO000486	Mergwe, Lower Burma; Lower Burma: East Mergui; 	Myanmar	12.456496	98.625963	6
ODO000487	Mex. City	Mexico	19.38461	-99.136979	23
ODO000488	Mexico City	Mexico	19.38461	-99.136979	23
ODO000489	Mile 23, Gauhati-Shillong, About 1000ft	India	25.858062	91.816173	33
ODO000490	Mishuyaca, Peru	Peru	-5.896786	-76.102982	0.1
ODO000491	Mishuyacu, Peru	Peru	-5.896786	-76.102982	0.1
ODO000492	Mittagong, N.S.W.	Australia	-34.456211	150.465563	6.5
ODO000493	Moa Moa stream, Apia	Samoa	-13.867926	-171.763362	4.5
ODO000494	Moa, 30 miles No. of Tanga, Tanganyika Terr., E. Africa	Tanzania	-4.768692	39.172204	0.5
ODO000495	Monado; Tond.; Tondano, in the island of Celebes; 	Indonesia	1.301484	124.91356	4
ODO000496	Mongoma Lobah	Cameroon	4.222853	9.199119	14
ODO000497	Mongo-ma, Lebah; Mongo-ma-Lobah, Cameroons; 	Cameroon	4.222853	9.199119	14
ODO000498	Mongo-ma-Lobah	Cameroon	4.222853	9.199119	14
ODO000499	Monterey, Nuevo Leon. Mex.	Mexico	25.653852	-100.308336	19
ODO000500	Montville, Q.; Montville, Blackall Ranges, Queensland; 	Australia	-26.694726	152.883734	4.5
ODO000501	Moolai to Mallat 4-5000; Tenasserim	Myanmar	13	98.75	10
ODO000502	Moolai to Morlut, 4-5000; Entre Moolai et Morlut, altitude 4 a 6,000 pieds anglais (Inde, dans la direction de Birmah et Tenaserim); 	Myanmar	13	98.75	10
ODO000503	Moolai, 3-6000.; Tenasserim	Myanmar	13	98.75	10
ODO000504	Moungpu, Darjeeling Dist.; Bengal, Darjeeling District, Mangpu; 	India	26.975722	88.369389	1
ODO000505	Moungpu, Darjeeling Dt.; Darjeeling District, Bengal, Mungpu, above the Teesta Valley; 	India	26.975722	88.369389	1
ODO000506	Moupin	China	30.369167	102.813889	10
ODO000507	Mt Merinjak, Borneo; Retuh; 	Malaysia	0.883273	110.516744	10
ODO000508	Mt Tambourine, Cameron Creek, S.Q.	Australia	-27.947331	153.194119	6
ODO000509	Mt. Makiling, Luzon	Philippines	14.13	121.2	3
ODO000510	Mt. Mou	New Caledonia	-22.0603	166.349	2.5
ODO000511	Mt. Mou; New Caledonia	New Caledonia	-22.0603	166.349	2.5
ODO000512	Mt. Nekando; New Caledonia	New Caledonia	-21.863975	166.436815	1.5
ODO000513	Mt. Wuchi, Hainan	China	18.921228	109.732819	2
ODO000514	MT.Cameroon: 1st. Plateau.; First plateau of Mount Cameroun; 	Cameroon	4.217441	9.17453	16
ODO000515	Muang Awm, Laos, ca 900m.; Muang Awn, Laos, 900 m.; 	Laos	19.004455	103.358583	20
ODO000516	Muang Ban, Laos, Siam; ; Muang Ban, Laos, Siam	Laos	18.663611	103.47559	28
ODO000517	Muang Cha, Laos, ca. 1100 m.	Laos	19.004455	103.358583	20
ODO000518	Muang Cha, Laos, Siam; Muang Cha, Laos, about 1,100 m.; 	Laos	19.004455	103.358583	20
ODO000519	Muang Cha, Laos, Siam, 1100 m.	Laos	19.004455	103.358583	20
ODO000520	Mubende, Fort Portal Rd., Uganda	Uganda	0.554146	31.388784	3
ODO000521	Mudis Hills, Coimbatore Dt.	India	10.6283	77.03315	0.5
ODO000522	Mudis T.E., Mudis Hills	India	10.6283	77.03315	0.5
ODO000523	Mugba, Naga Hills; Nungba, Naga Hills; 	India	24.743333	93.4175	3
ODO000524	Munnar, Travancore	India	9.315984	76.535804	1.5
ODO000525	Munnar, Travan-Ghat	India	9.315984	76.535804	1.5
ODO000526	Munnar, W. Ghat, Travancore	India	9.315984	76.535804	1.5
ODO000527	Murray R., S.A.; Murray River, at Morgan, South Australia; 	Australia	-34.033308	139.668711	200
ODO000528	Mutwanga, Ruwenzori, B. Congo	Democratic Republic of the Congo	0.338205	29.747251	1
ODO000529	N Fiji, Nadarivatu	Fiji	-17.566895	177.958528	1
ODO000530	N Gui; New Guinea (N.W. end); 	Indonesia	-3.4	136	600
ODO000531	N. America, Nova Scotia	Canada	45	-62.999444	300
ODO000532	N. Angola, Lunda Prov., Dundo	Angola	-7.377074	20.821198	5.5
ODO000533	N. Angola, Lunda Province, Dundo; Dundo, Angola, Portugese West Africa; 	Angola	-7.377074	20.821198	5.5
ODO000534	N. Angola: Lunda prov. Dundo.	Angola	-7.377074	20.821198	5.5
ODO000535	N. Angola: Lunda Prov., Dundo	Angola	-7.377074	20.821198	5.5
ODO000536	N. California	United States of America	36.5	-120	600
ODO000537	N. Dutch New Guinea, Waigeu, Camp Nok, 2,500 ft; Waigeu I., (off N.W. New Guinea), Camp Nok, 2500 ft.; 	Indonesia	-0.081667	130.754722	3
ODO000538	N. Dutch New Guinea, Waigeu, Camp Nok, 2,500 ft.	Indonesia	-0.081667	130.754722	3
ODO000539	N. Guin.; ; N[ew Guinea]		-5.666667	141	1200
ODO000540	N. India; Bengale; 	India	24.333333	89	290
ODO000541	N. India, Lachiwala, Dehra Dun Dist., R. Song	India	30.21804	78.076568	7
ODO000542	N. India, Shamket/ShamKhet Kamaon	India	29.389296	79.529835	0.7
ODO000543	N. India: Turzum, Darjeeling; Turzum Tea Estate, Darjiling; 	India	26.94703	88.175446	0.5
ODO000544	N. Peru, Rio Paranapura, Balsapuerto, 220m	Peru	-5.804508	-76.474293	10
ODO000545	N. Rhodesia, Lake Bangweulu, Nr. Monfuli, from stream	Zambia	-11.15304	29.80042	35
ODO000546	N. Rhodesia: Lake Bangweulu, Kapola, N. of Kapata	Zambia	-11.15304	29.80042	35
ODO000547	N. Sumatra, Atjeh, Pendeng, 400m.	Indonesia	4.2169	97.6474	20
ODO000548	N. Sydney, N.S.W.; Hornsby, New South Wales; 	Australia	-33.698976	151.094413	2
ODO000549	N. Zealand (New Zealand); New Zealand. (Auckland.); 	New Zealand	-36.847338	174.761045	8
ODO000550	N.Dutch New Guinea: Waigeu, Camp Nok, 2,500ft.	Indonesia	-0.081667	130.754722	3
ODO000551	N.E. Angola: Dundo, Lunda Dist.	Angola	-7.377074	20.821198	5.5
ODO000552	N.E. Angola: Dundo. Lunda Dist.	Angola	-7.377074	20.821198	5.5
ODO000553	N.E. Borneo; Borneo; 	Malaysia	0	114	800
ODO000554	N.E. India, Sikkim, Kurseong, 4300 ft.	India	26.883042	88.28335	3
ODO000555	N.E. New Guinea: Saiko, 5,500-6,000 ft., Bubu River, (Upper Waria River.)	Papua New Guinea	-7.95	147.066667	4.5
ODO000556	N.E. Siam, Chaiyabari	Thailand	18.1279	103.111882	50
ODO000557	N.W. Borneo	Malaysia	0	114	800
ODO000558	N.W. Ind, Hassan Abdal	Pakistan	33.823106	72.676752	2.6
ODO000559	N.W. Ind.; Campbellpore; ; N.W. India, Campbellpore	India	33.775236	72.373726	6
ODO000560	N.W. Ind.; Murree	Pakistan	33.902219	73.397135	3.5
ODO000561	N.W. India; Sabathu; N.W. India, Sabathu, near Simla; 	India	30.974164	76.990796	0.8
ODO000562	N.W. Yunnan	China	24.47516	101.3431	500
ODO000563	N; N Gui		-5.666667	141	1200
ODO000564	Naga Hills, 3000', Assam; Kampison, Himalayas; 	India	26.033869	94.19474	44
ODO000565	Nagri Spur, Darjeeling Dt.; Nagri, Darjeeling District; 	India	26.914909	88.208721	2
ODO000566	Naini Tal, Kumaon, W. Himalayas, ca. 7000ft	India	29.383648	79.457558	2.5
ODO000567	Nalande, Ceylon; Nalande, Ceylon; Nalande, Ceylon	Sri Lanka	7.669834	80.645835	0.1
ODO000568	Napoklu, Coorg	India	12.306556	75.687937	0.3
ODO000569	Naraikadu 2,500-3,000'. Tinnevelly Dt. S. India	India	8.557083	77.448262	6
ODO000570	Nathui La Sikkim - Tibet B'rds	India	27.386554	88.830887	10
ODO000571	Nepal, Phewa Tal. Nr. Pokhara, 2,500 ft.	Nepal	28.215257	83.945343	2
ODO000572	New Britain	Papua New Guinea	-5.733333	150.733333	270
ODO000573	New Caledonia, 1Km SE. col d'Amieu, Route Territoriale 5	New Caledonia	-21.621863	165.807809	1
ODO000574	New Caledonia, Mt. Canala	New Caledonia	-21.580947	165.9293	1
ODO000575	New Caledonia, Mt. Koghi	New Caledonia	-22.168294	166.516408	3
ODO000576	New Granada		4.65	-74.05	1000
ODO000577	New Guinea; la Nouvelle-Guinee? Jobi?; 		-5.666667	141	1200
ODO000578	New Hebrides, Aneityum, Red Crest., 1,200 ft. 3m. N.E. of Anelgauhat	Vanuatu	-20.181628	169.770094	5
ODO000579	New Hebrides, Erromanga	Vanuatu	-18.822513	169.152551	25
ODO000580	New Hebrides, Malekeula, Ounua	Vanuatu	-16.173615	167.522284	45
ODO000581	New Hebrides: Malekula, Ounua	Vanuatu	-16.173615	167.522284	45
ODO000582	Nigeria, Ado Ekiti	Nigeria	7.616191	5.253283	8
ODO000583	Nigeria, Vom. Stock Farm	Nigeria	9.73642	8.815585	4
ODO000584	Nikko, Japan; Japan, Nikko, ca. 3000 ft.; 	Japan	36.848993	139.597592	33
ODO000585	Nilgiri Wynad., 3500'; Kallar, Nilgiris; 	India	11.433333	76.416667	16
ODO000586	Nilgiris; At the foot of the Nilgiri Hills above Kalar at 2,000'; 	India	11.341142	76.867672	2
ODO000587	Nilgiris, Wynaad, 3500 ft	India	11.433333	76.416667	16
ODO000588	North Borneo	Malaysia	0	114	800
ODO000589	North Ind; Nord du Bengale; North Ind[ia]	India	24.333333	89	290
ODO000590	NSW; Queensland; N[ew] S[outh] W[ales]	Australia	-32	147	600
ODO000591	Nukualufa, Tonga; Nukualofa, Tonga; Nukualofa, Tonga	Tonga	-21.143771	-175.195799	4
ODO000592	Nyamgasani Valley, 8-9,000ft.; Uganda: Ruwenzori Range	Uganda	-0.15	29.81667	1
ODO000593	Nyasaland Protectorate, Zomba	Malawi	-15.389244	35.33296	5
ODO000594	Nyasaland: Ramens shore; Nyasaland, "Ramens" (West shore of L. Nyasa about twelve miles north of Fort Johnston); 	Malawi	-14.340346	35.15156	1
ODO000595	Nyererwe R., Inyanga Dist., S. Rhodesia	Zimbabwe	-18.216667	32.75	80
ODO000596	Obudu, Nigeria; Obudu Plateau, Eastern Nigeria; 	Nigeria	6.662543	9.175667	3
ODO000597	Obydos, Lower Amazon	Brazil	0.150436	-55.579507	250
ODO000598	Obydos, Traill; Obydos, sur l'Amazone; 	Brazil	0.150436	-55.579507	250
ODO000599	Odon	Malaysia	1.45	110.083333	10
ODO000600	Old Calabar; de Cameroon, (Afrique occid.); 	Nigeria	4.961646	8.319515	0.5
ODO000601	Old Calabar R	Nigeria	5.278373	8.226278	40
ODO000602	Old Calabar R.; Le Vieux-Calabar; 	Nigeria	5.278373	8.226278	40
ODO000603	Ooty, Nilgiris, 7500'	India	11.414289	76.688363	4
ODO000604	P. Siam, Prachaup Province, Pak Tawan	Thailand	11.75	99.666667	95
ODO000605	Pahang F.M.S., Kuala Tahan, 350'	Malaysia	4.369953	102.402753	2.3
ODO000606	Pahang, Cameron's Highlands, 4-5000 ft.	Malaysia	4.487481	101.470334	17.5
ODO000607	Pahang, F.M.S., Cameron Highlands, Kuala Boh	Malaysia	4.414325	101.383087	0.5
ODO000608	Pahang: L. Tamang	Malaysia	4.433333	101.383333	0.5
ODO000609	Paikakariki, Wellington, N.Z.; Paikakariki, on the coast about 20 miles north of Wellington; 	New Zealand	-40.98773	174.952389	4
ODO000610	Pak Murung, Laos, ca.600m.; Pak Muang, Laos, about 600 m.; Pak Muang, Laos, ca 600 m	Laos	18.766667	103.233333	20
ODO000611	Palampur, 4000 ft.; Palampur, 4000 ft., Sikkim; 	India	32.118986	76.541362	4
ODO000612	Palawan	Philippines	9.5	118.5	200
ODO000613	Palghat, Malabar	India	10.7	76.583333	50
ODO000614	Pallal, N.S.W.	Australia	-29.976052	150.431204	12.5
ODO000615	Palnis, Kedai Kanal, 7000 ft.	India	10.217302	77.40348	8.5
ODO000616	Palnis, Kedai Knnal, 7000 ft.	India	10.217302	77.40348	8.5
ODO000617	Palnis, Kodai Kanal; 7000ft.	India	10.217302	77.40348	8.5
ODO000618	Pandy R Wynaad Nilgiris 3500 ft.; Ochterlony Valley, Nilgiris; 	India	11.46148	76.503145	2.75
ODO000619	Panima, Guatemala; Guatemala, Panima in Vera Paz; 	Guatemala	15.200054	-91.183449	0.7
ODO000620	Papua New Guinea, Chimbu Prov., Mt Wilhelm, 3600m nr waterfall entering Lake Piunde	Papua New Guinea	-5.788019	145.048094	2
ODO000621	Papua, Kokoda, 1,200ft.; Northern Papua, Kokoda, 1200 ft.; 	Papua New Guinea	-8.876753	147.736341	1.3
ODO000622	Papua, Mafulu, 4,000ft; Central Papua, Mafulu, 4000 ft.; 	Papua New Guinea	-8.513056	146.957222	36
ODO000623	Papua: Kokoda, 1,200ft; Central E. New Guinea, Papua Kokoda, 1200 ft; 	Papua New Guinea	-8.876753	147.736341	1.3
ODO000624	Papua: Mafulu, 4,000ft.; S.E. New Guinea, Central Papua, Mafulu, 4000 ft.; 	Papua New Guinea	-8.513056	146.957222	36
ODO000625	Para; Brazil; 	Brazil	-4.578607	-52.91742	940
ODO000626	Pashok, Darjeeling	India	27.073168	88.403941	3
ODO000627	Pebas, Amazons	Peru	-3.47008	-71.989106	80
ODO000628	Pebas, sur Amaz.; Peba sur le haut Amazone; 	Peru	-3.47008	-71.989106	80
ODO000629	Pebas, Up. Amaz.; ; Up[per] Amaz[ons]	Peru	-3.47008	-71.989106	80
ODO000630	Pengalengan; Java; 	Indonesia	-7.205912	107.580023	12
ODO000631	Penin: Siam., Patalung; Peninsular Siamd, Patalung, Koh Wangse; 	Thailand	7.5	100	43
ODO000632	Peninsular Siam, Nakon Sri Tamarat, Klawng Tadi	Thailand	8.432658	99.959325	50
ODO000633	Perak	Malaysia	4.75	101	150
ODO000634	Perak, Batang Padang, Jor Camp; Perak: Batang Padang, Jor Camp 1800'; 	Malaysia	4.366667	101.333333	10
ODO000635	Perak, F.M.S., Batang Padang, Jor Camp, 1800 ft.	Malaysia	4.366667	101.333333	10
ODO000636	Perak, F.M.S., Jor Camp, 2000ft; Perak, Batang Padang, Jor Camp, 2000'; 	Malaysia	4.366667	101.333333	10
ODO000637	Perak, Larut Hills, 4,500'.	Malaysia	5	100.883333	8
ODO000638	Perth, W.A.; Mungar's Lake, Perth; W. A[ustralia], Perth	Australia	-31.929026	115.828248	0.6
ODO000639	Peru, Mishuyaca	Peru	-5.896786	-76.102982	0.1
ODO000640	Peru, Mishuyacu	Peru	-5.896786	-76.102982	0.1
ODO000641	Peru, S. Antonio	Peru	-12.609288	-76.678965	7
ODO000642	Peru, Yumbatos	Peru	-6.320144	-76.297682	0.6
ODO000643	Peru: Iquitos; Peru: Iquitos, Dept. Loreto; 	Peru	-3.757866	-73.282363	7
ODO000644	Peru: Iquitos, Mishuyacu	Peru	-5.896786	-76.102982	0.1
ODO000645	Philippine Is., Luzon, Prov. Benguet, Baguio	Philippines	16.401943	120.594783	6.5
ODO000646	Philippine Is., Surigao, Mindanao	Philippines	9.787603	125.542445	18
ODO000647	Philippines, Luzon, Mt. Makeling	Philippines	14.13	121.2	3
ODO000648	Philippines, Mindanao, Landanao, Kolambugan; Mindanao, Lanao Province, Kolambugan; 	Philippines	8.091878	123.895661	6
ODO000649	Preangan, Java	Indonesia	-7	107.5	80
ODO000650	Pretoria	South Africa	-25.750976	28.220435	22
ODO000651	Pu Tat, Laos, ca. 1200 m.	Laos	18.766667	103.233333	20
ODO000652	Pulo Aor, off E. coast of Johore; Pulau Aor, off the east coast of Johore; 	Malaysia	2.449499	104.521353	2.7
ODO000653	Pulo Nias	Indonesia	1.1	97.533333	70
ODO000654	Purula, Vera Paz; Guatemala, Purula in Vera Paz; 	Guatemala	15.236637	-90.237595	0.9
ODO000655	Pusa	India	25.978063	85.648772	0.7
ODO000656	Queensland; Kuranda to Herberton, North Queensland, 1000-4000 feet; 	Australia	-17.09968	145.506894	34
ODO000657	R. Bandama? Ivory Coast; Ivory Coast, River Bandama, near Korhogo; 	Ivory Coast	9.445387	-5.307841	40
ODO000658	R. Bobonaza, Ecuador	Ecuador	-1.927472	-77.206895	95
ODO000659	R. Demerara, B. Guiana	Guyana	5.779118	-58.38156	115
ODO000660	R. Papagaio, Guerrero, 1200ft.; Mexico, Rio Papagaio in Guerrero; 	Mexico	17.090166	-99.553168	45
ODO000661	Ramens; Nyasaland, "Ramens" (West shore of L. Nyasa about twelve miles north of Fort Johnston); 	Malawi	-14.340346	35.15156	1
ODO000662	Ranchi	India	23.345282	85.309606	12
ODO000663	Rijang R., Mangpu, Darjeeling Dt.; Riyang R., Mangpu, Darjeeling Dt.; 	India	26.975722	88.369389	1
ODO000664	Rio Janeiro; Brazil, Rio Janeiro; 	Brazil	-22.927849	-43.486808	32
ODO000665	Rio Napo; Rio Napo (Equateur); 	Ecuador	-0.421205	-76.554597	155
ODO000666	Rio Napo, E. Peru?; believed to be from East Peru (district of the Ucayali River); 	Peru	-2.254021	-74.07099	195
ODO000667	Rio Negro; Rio Negro, (Amerique equatoriale); 		-0.45507	-64.610421	600
ODO000668	Rioja, Prov. Moyobamba, Dep.S. Martin, Peru	Peru	-6.062419	-77.16475	4
ODO000669	Riv. gambia; Cote de Guinee; 	Gambia	13.40974	-13.890156	290
ODO000670	River Gade, Cassiobury Park, Watford, Hertfordshire, England	United Kingdom	51.662409	-0.425578	0.7
ODO000671	Rockhampton Q.; Queensland, Rockhampton; 	Australia	-23.336313	150.51175	10
ODO000672	Rockhampton, N.Q.	Australia	-23.336313	150.51175	10
ODO000673	Rowgong, Assam, India; ; Assam, Nowgong	India	26.34661	92.685435	3.5
ODO000674	Rusape	Zimbabwe	-18.540828	32.129934	2.3
ODO000675	Rustenberg	South Africa	-25.646305	27.252927	8
ODO000676	Ruwenzori, 6-8000 ft.		0.385833	29.871667	40
ODO000677	Ryukyu; Loo Choo	Japan	26.5	128	500
ODO000678	S. America, N. Peru, Huallaga reg., Balsapuerto	Peru	-5.830088	-76.564934	25
ODO000679	S. America, Peru, Yumbatos	Peru	-6.320144	-76.297682	0.6
ODO000680	S. America, S.E. Colombia, Umbria	Colombia	0.858648	-76.580144	0.5
ODO000681	S. Angola, Ongueria	Angola	-15.316667	13.533333	10
ODO000682	S. Geronimo, 3000 ft.; Guatemala, San Geronimo, Vera Paz; 	Guatemala	15.063082	-90.241527	0.9
ODO000683	S. Geronimo, Guatemala; Guatemala, San Geronimo, Vera Paz; 	Guatemala	15.063082	-90.241527	0.9
ODO000684	S. India, Burlayur, 2520'; Burliyar, Nilgiris, 2,500 feet; 	India	11.339804	76.838215	4
ODO000685	S. India, Coimbatore Dist.; Bolovumpatti Forest; Bolovumpatti Hills, South Coimbatore district; 	India	10.888272	76.841581	6
ODO000686	S. India, Coorg, Canvey R., Fraserpet	India	12.455319	75.956993	2.3
ODO000687	S. India, Coorg, Fraserpet Cauvery; Cauvery River, Fraserpet, Coorg; 	India	12.455319	75.956993	2.3
ODO000688	S. India, Coorg, Fraserpet, near Conwary River	India	12.455319	75.956993	2.3
ODO000689	S. India, Coorg, Greenfields, Sidapur	India	12.296615	75.874861	0.8
ODO000690	S. India, Coorg, Mercara	India	12.425933	75.737806	4
ODO000691	S. India, Coorg, Mercara, Sidapur Rd	India	12.425933	75.737806	4
ODO000692	S. India, Coorg, Napoklu, Canvary River	India	12.306524	75.687925	1.8
ODO000693	S. India, Coorg, Sampaji Ghat	India	12.4324	75.5931	4
ODO000694	S. India, Coorg, Sampayi Ghat	India	12.4324	75.5931	4
ODO000695	S. India, Coorg-Kanara	India	13.454997	75.164049	193
ODO000696	S. India, Mudis Hills	India	10.6283	77.03315	0.5
ODO000697	S. India, Nilgiris, Coonoor Rd., Burliyar R., 2500'	India	11.341387	76.84049	4.5
ODO000698	S. India, North Kanara, Castle Rock	India	15.3979	74.3322	2.5
ODO000699	S. India, S. Kanara, Peraje	India	12.52087	75.438305	1.3
ODO000700	S. India, Sampaji - Gt. Coorg, 500 ft.	India	12.4324	75.5931	4
ODO000701	S. India, Shambaganur, Madura	India	10.232	77.503602	0.5
ODO000702	S. India: Coorg, Bhaf mandala Rd.; S. India, Coorg, Bhagmandala Rd.; 	India	12.306957	75.650484	16
ODO000703	S. India: Coorg, Bhgmandala Rd.; Cauvery near Bhagamandala; 	India	12.306957	75.650484	16
ODO000704	S. India: Coorg, Bhugmandula Rd.; ; India, Coorg, Bhagmandala Rd	India	12.306957	75.650484	16
ODO000705	S. India: Coorg, Khatlkad, 3800ft	India	12.425933	75.737806	4
ODO000706	S. India: Coorg, Mercara	India	12.425933	75.737806	4
ODO000707	S. India: Coorg, Sampaji Ghat	India	12.4324	75.5931	4
ODO000708	S. India: Coorg, Sidapur Rd., 4 mls from Mercara	India	12.400889	75.776137	5
ODO000709	S. India: Coorg., Bhagmandalu, 4000ft	India	12.41965	75.52183	0.8
ODO000710	S. Malabar, Mannarghat, Dhoni	India	10.855934	76.624061	0.7
ODO000711	S. Nigeria, Oshun Bridge, Oshogbo	Nigeria	7.791779	4.555594	9
ODO000712	S. Nigeria: Ikorodu, Ogun delta	Nigeria	6.610994	3.507511	8
ODO000713	S. Rhodesia, Victoria Falls, Kalai Island, Zambesi River	Zimbabwe	-17.895556	25.8225	0.8
ODO000714	S. Shan Sts.; Southern Shan States; 	Myanmar	21	97.333333	330
ODO000715	S. Sumatra, Ranan Lake; Sudsumatra: Ranau-See; 	Indonesia	-4.87602	103.925508	8
ODO000716	S.E. Colombia, Umbria	Colombia	0.858648	-76.580144	0.5
ODO000717	S.India: Coorg, Bettageri; Dubarry, Cauvery river, Coorg; 	India	12.220726	75.872372	1.3
ODO000718	S.India: Coorg, Hallery Mercara, 4000ft; Coorg, Hallery near Mercara, 3,800 ft.; 	India	12.456437	75.778965	0.5
ODO000719	S.W. China, Yunnan; near Shangkuan; 	China	25.957273	100.129624	0.4
ODO000720	S.W. China: Yunnan	China	25.05	101.866667	500
ODO000721	Sabah: Mt. Kinabalu, Mesilau	Malaysia	5.983333	116.6	6
ODO000722	Sabo, Vera Paz, Guatemala;  Guatemala, Baja Verapaz Dept., Sabo (= Sabob, coffee plantation about 6 km E of Purulhá), 15°15'N, 90°9'W, 880 m; 	Ecuador	15.25	-90.15	0.03
ODO000723	Sadiya	India	27.857576	95.629477	1.6
ODO000724	Salisbury, Mashonaland	Zimbabwe	-17.821164	31.050666	20
ODO000725	Samaru Lake, Zaria	Nigeria	11.186928	7.621976	0.3
ODO000726	Samoa, Suimu; Sumiu, Upolu, W. Samoa; 	Samoa	-14.010236	-171.7786	0.4
ODO000727	Samoan Is., Tutuila Is., Pagopago	American Samoa	-14.27797	-170.705174	1
ODO000728	Samoan Is., Upolu Is., Malololelei	Samoa	-13.912988	-171.734874	1
ODO000729	Sampaji Ghat, Coorg	India	12.4324	75.5931	4
ODO000730	San Geronimo, Vera Paz	Guatemala	15.063082	-90.241527	0.9
ODO000731	San Isidro, 1600 ft.; San Isidro, Guatemala; 	Guatemala	14.71667	-91.75	1
ODO000732	Sanda I.; Loo Choo Is.; Sandwich Islands; Sandwich Is., Loo Choo Is., Voy of 'Blossom'	Japan	26.5	128	500
ODO000733	Sango Bay, Katera, Uganda; Sango Bay, Katere, Uganda; 	Uganda	-0.893889	31.722778	5
ODO000734	Santa Anna; Solomon Islands, Santa Anna; 	Solomon Islands	-10.833979	162.467408	3
ODO000735	Santarem	Brazil	-2.445184	-54.72319	10
ODO000736	Sapucay, Paraguay	Paraguay	-25.662742	-56.956156	2
ODO000737	SAR; Sarawak, Borneo; 	Malaysia	2.934466	112.912599	380
ODO000738	SAR.; Sarawak; 	Malaysia	2.934466	112.912599	380
ODO000739	Sarawak	Malaysia	2.934466	112.912599	380
ODO000740	Sarawak, Borneo; Sarawak: Mt. Matang and nead Kuching; 	Malaysia	2.934466	112.912599	380
ODO000741	Sarawak, Borneo; Matang Rd; Sarawak: Mt. Matang and nead Kuching; 	Malaysia	1.573142	110.269813	6.5
ODO000742	Sarawak, Kuala Madalam Limbang R.	Malaysia	4.475929	114.921939	1
ODO000743	Sarawak, Lawas	Malaysia	4.467718	115.47807	55
ODO000744	Sarawak, Limbang	Malaysia	4.287082	115.130919	63
ODO000745	Sarawak, Mt. Batulawi	Malaysia	3.866667	115.383333	4.5
ODO000746	Sarawak, Mt. Dulit, 3,300 ft. Prim. forest	Malaysia	3.333333	114.15	7
ODO000747	Sarawak, Mt. Dulit, 3,300 ft. Primitive forest, at waterfall	Malaysia	3.333333	114.15	7
ODO000748	Sarawak, Mt. Dulit, 3.700 ft. Moss forest, flying over R. Lejoc.	Malaysia	3.318227	114.228221	9
ODO000749	Sarawak, Mt. Dulit, 3.700 ft., on rocks below top crossing	Malaysia	3.333333	114.15	7
ODO000750	Sarawak, Mt. Dulit, 3000 ft.	Malaysia	3.333333	114.15	7
ODO000751	Sarawak, Mt. Dulit, 4,000 ft. Moss forest	Malaysia	3.333333	114.15	7
ODO000752	Sarawak, Mt. Dulit, Dulit Trail, over stream, Primitive forest	Malaysia	3.333333	114.15	7
ODO000753	Sarawak, Mt. Dulit, R. Koyan 2,500 ft., Primary forest, on herbage on wet rocks	Malaysia	3.314928	114.166212	3
ODO000754	Sarawak, Mt. Dulit, R. Koyan, 2,500 ft., Primary forest, Riverside	Malaysia	3.314928	114.166212	3
ODO000755	Sarawak, Mt. Matang	Malaysia	1.6	110.18333	5
ODO000756	Sarawak: Lio Matu; Borneo, Sarawak, Lio Matu; 	Malaysia	3.169703	115.220161	0.4
ODO000757	Sarawak: Mt. Dulit, 4000ft	Malaysia	3.333333	114.15	7
ODO000758	Sarawak: Ulu Baram; Borneo, Sarawak, Ulu Baram; 	Malaysia	3.738259	114.738891	110
ODO000759	Sardinia; Sardegna; 	Italy	40	9	135
ODO000760	Selangor, F.M.S., Kuala Lumpur	Malaysia	3.140553	101.694529	12
ODO000761	Senchal, Darjeeling Dist., 8800ft	India	27.005468	88.260391	0.5
ODO000762	Sha Lo Tung, Hong Kong	Hong Kong	22.478676	114.183423	0.3
ODO000763	Shillong	India	25.58547	91.890374	9
ODO000764	Shillong, Assam	India	25.58547	91.890374	9
ODO000765	Shillong, Assam, 6000 ft.	India	25.58547	91.890374	9
ODO000766	Shillong, Fruit Gdn. pond	India	25.58547	91.890374	9
ODO000767	Shimba Hills, Kenya Col.	Kenya	-4.257265	39.385761	15
ODO000768	Shiradi, Sakleopur Ghat, S. Kanara	India	12.828983	75.530649	0.4
ODO000769	Siam; Pak Tawan, Prachuap Province; 	Thailand	11.75	99.666667	95
ODO000770	Siam Rd., Loimwe, S. Shan Sts., 3000'; Loimwe, 3,000 ft., Siam Road, Southern Shan States; 	Myanmar	21.17157	99.752898	0.8
ODO000771	Siam Rd., S. Shan States, Burma; Siam Rd., Kalaw, Burma	Myanmar	20.624683	96.565596	2.5
ODO000772	Siam Rd., S.Shan Sts., 3000'; Kalaw, S. Shant States, Burma; 	Myanmar	20.624683	96.565596	2.5
ODO000773	Siam, Bangkok	Thailand	13.784008	100.632841	35
ODO000774	Siam, Dalat; Siam: Doun-moi; Dalat, Siam	Vietnam	11.938496	108.45451	40
ODO000775	Siao-Lou, Szechuan	China	29.951358	102.422315	8
ODO000776	Sibir. Or.	Russia	60	105	2000
ODO000777	Sibir. orient; Irkutzk; 	Russia	52.302605	104.251828	13
ODO000778	Sibir. orient.; Irkutsk; 	Russia	52.302605	104.251828	13
ODO000779	Sicile	Italy	37.666667	14	140
ODO000780	Sidapur Coorg	India	12.296615	75.874861	0.8
ODO000781	Sierra de las Aguas Escondidas, Guerrero, 7000 ft.	Mexico	17.5	-100	220
ODO000782	Sierra Leone, Bafodea	Sierra Leone	9.688578	-11.72058	10
ODO000783	Sierra Leone, Port Lokko	Sierra Leone	8.77164	-12.785328	1.5
ODO000784	Sierra Leone, Sandea	Sierra Leone	8.395922	-11.388216	1.5
ODO000785	Sierra Leone, Yana	Sierra Leone	9.739103	-12.322723	0.75
ODO000786	Sigur 4000ft, Nilgiris, Mysore Ditch, S. India	India	11.604444	76.723611	3
ODO000787	Sikkim, Kurseong, 4300 ft.	India	26.877778	88.277222	0.9
ODO000788	Sikkim; 4000ft., Mungpu; Sikkim, Mangpu, 4000 ft.; 	India	26.975722	88.369389	1
ODO000789	Silhet; Le Silhet (nord de la Chine); 	Bangladesh	24.897858	91.865114	6
ODO000790	Silhouette; Seychelle Islands	Seychelles	-4.488135	55.22974	3
ODO000791	Society Is., N. Raiatea, 1,000 ft.; Society Islands, N. Raiatea, 1000 ft.; 	French Polynesia	-16.807228	-151.435038	10
ODO000792	Solomon Is., Guadalcanal Tapenanje	Solomon Islands	-9.484145	159.89917	8
ODO000793	Solomon Is., Guadalcanal, Tapenanje	Solomon Islands	-9.484145	159.89917	8
ODO000794	Solomon Is., San Jorge, Casuarina forest nr. stream, Low herbage	Solomon Islands	-8.473838	159.615534	12
ODO000795	South Annam; Daban, 650 ft, Phanrang Province; 	Vietnam	12.633333	109.1	0.5
ODO000796	St Paulo; St. Paulo, on the Upper Amazons; 	Brazil	-23.55	-46.633333	10
ODO000797	St. Laurent Du Maroni, Fr. Guiana	French Guiana	5.4994	-54.0311	4
ODO000798	St. Patrick's R. Tas.; St. Patrick's River, Tasmania; 	Australia	-41.297298	147.382717	21
ODO000799	St. Vincent; Pools near Barouallie	Saint Vincent and the Grenadines	13.234807	-61.266718	1
ODO000800	Stradbroke I., Q.; Stradbroke Island, S. Queensland; 	Australia	-27.662573	153.436429	30
ODO000801	Stream, Korhogo, Ivory Coast; At a stream near Korhogo, Ivory Coast (9 degrees N, 6 degrees W, 500m above sea level); 	Ivory Coast	9.456254	-5.620954	7
ODO000802	Sula; Sula; 	Indonesia	-1.866667	125.366667	115
ODO000803	Sumatra; Mountains of Paio in the island of Sumatra; 	Indonesia	0.233333	101.333333	850
ODO000804	Sydney, N.S.W.; Duck Creek, Auburn, near Sydney, New South Wales; 	Australia	-33.839288	151.003753	2.5
ODO000805	Sydney, NSW; ; Sydney, New South Wales	Australia	-33.865	151.209444	64
ODO000806	Szechuan, Siao-Lou	China	29.951358	102.422315	8
ODO000807	Tablazo, Costa Rica, 1300-1600 m.	Costa Rica	9.806007	-84.151096	0.75
ODO000808	Ta-chien-lu; Western China, Province of Szechuen, Ta-chien-lu; 	China	29.999	101.957	110
ODO000809	Tahiti, Hitiaa	French Polynesia	-17.618697	-149.340085	4.5
ODO000810	Tamaracherry; S. Malabar, near Tamaracherri; 	India	11.415165	75.935182	2
ODO000811	Tamaracherry, S. Malabar	India	11.415165	75.935182	2
ODO000812	Tamaracherry, S. Malabar, nr. Calicut; ; Tamaracherry, S. Malabar, nr Calicut	India	11.415165	75.935182	2
ODO000813	Tamaracherry, S.Malabar	India	11.415165	75.935182	2
ODO000814	Tambourine, Q.; Mount Tambourine, Queensland; 	Australia	-27.870854	153.124101	6
ODO000815	Taweing, Laos, 1200 m.	Laos	18.99302	103.36033	20
ODO000816	Tawieng, Laos, ca. 800 m.; Taweing, Laos, about 800 m.; 	Laos	18.99302	103.36033	20
ODO000817	Teapa, Tabasco; Mexico, Teapa in Tabasco; 	Mexico	17.621488	-92.934996	20
ODO000818	Teesta River; Tista River, Darjiling District, 1,500 feet; 	India	27.054687	88.426891	10
ODO000819	Tenasserim, Bachrup Brdt.; Siam-Burma frontier, Tenasserim-Bachrup boundary; 	Myanmar	13	98.75	300
ODO000820	Tenasserim, Burma; Tenasserim, Lower Burma; 	Myanmar	13	98.75	300
ODO000821	Tennant's Creek, N.T.; ; N[orthern] T[erritory], Tennant's Creek	Australia	-19.654407	134.187035	5
ODO000822	Tennant's Crk, N.T.; ; N[orthern] T[erritory], Tennant's Creek	Australia	-19.654407	134.187035	5
ODO000823	Texas; United States, Texas; 	United States of America	31.445844	-99.64531	600
ODO000824	Thika, Kenya	Kenya	-1.046002	37.097018	8
ODO000825	Thomar Amazons; Brazil: Rio Negro, Thomar; 	Brazil	-0.383333	63.9	10
ODO000826	Tlalpam, Mexico	Mexico	19.205895	-99.198283	15
ODO000827	Tond., Menado; Menado, Celebes; 	Indonesia	1.477662	124.849017	8
ODO000828	Tongatabu	Tonga	-21.154981	-175.22174	16
ODO000829	Tonglu, Sikkim, 10,000ft.	India	27.03	88.09	1.5
ODO000830	Tonkin	Vietnam	21.6	104.6	260
ODO000831	Tonkin, Bao-Ha; Bao Ha, Tonkin; Tonkin, Bao Ha	Vietnam	22.191823	104.369922	6
ODO000832	Tonkin, Ba-Xat	Vietnam	22.54214	103.885695	1.5
ODO000833	Tonkin, Ngai-Tio, 4800 ft.	Vietnam	22.679544	103.61166	4.5
ODO000834	Tonkin: Ngai-Tio, 4800ft.	Vietnam	22.679544	103.61166	4.5
ODO000835	Tonkin: Thai-Nien, Basin of Fleuve Rouge; Bao Ha, Tonkin; Tonkin, Thai-Nien, Basin of Fleuve Rouge	Vietnam	22.385622	104.135817	10
ODO000836	Townsville, N.Q.; Townsville, North Queensland; 	Australia	-19.259104	146.816036	1.5
ODO000837	Transvaal; Le Transvaal (Afrique australe); 	South Africa	-25	30	322
ODO000838	Trincomali; Ceylon	Sri Lanka	8.583207	81.212593	4.5
ODO000839	Trinidad	Trinidad and Tobago	10.441005	-61.42272	70
ODO000840	Turiani, T.T., N.Morogoro	Tanzania	-6.148309	37.598265	1.5
ODO000841	Udagama; Ceylon	Sri Lanka	6.824439	80.180573	2.5
ODO000842	Uganda; Uganda, Fort Portal, Western Province, alt. c. 5000 ft.; 	Uganda	0.655468	30.27526	3
ODO000843	Uganda, Acholi, Madi Opei	Uganda	3.60437	33.087583	0.6
ODO000844	Uganda, Acholi, Paimal; Pachua dam, Paimal, Acholi Region, northern Uganda; 	Uganda	3.061308	33.421255	0.75
ODO000845	Uganda, Budama & Bunyuli	Uganda	1.142519	34.051661	50
ODO000846	Uganda, Budama, Entebbe; Uganda, Budama; Uganda, Budama	Uganda	0.051243	32.464207	5
ODO000847	Uganda, Bugalla, Is. Sesse, L. Victoria	Uganda	-0.419	32.25	16
ODO000848	Uganda, Bunyoro Distr., Ft. Portal; Fort Portal, Bunyoro District south of L. Albert; 	Uganda	0.654438	30.27629	3
ODO000849	Uganda, Bwamba Valley, Kidongo, 2500'	Uganda	0.897222	30.363333	22
ODO000850	Uganda, Entebbe; British East Africa, Uganda, Entebbe; 	Uganda	0.051243	32.464207	5
ODO000851	Uganda, Entebbe, Shore of L. Victoria	Uganda	0.051243	32.464207	5
ODO000852	Uganda, Gulu, Patiko	Uganda	3.010856	32.322372	0.7
ODO000853	Uganda, Jinja	Uganda	0.442445	33.215538	5
ODO000854	Uganda, Kamengo; Kamengo Forest, near Kampala; 	Uganda	0.146062	32.223339	0.7
ODO000855	Uganda, Kampala	Uganda	0.317492	32.596032	13
ODO000856	Uganda, Karamoja, Aswa R.	Uganda	2.5	34.166667	160
ODO000857	Uganda, Kigezi, Mafuga Forest; Mafuga Forest, Kigezi District, Uganda, about 7000ft.; 	Uganda	-1.05	29.8667	4
ODO000858	Uganda, Masindi Port.	Uganda	1.699618	32.07306	2
ODO000859	Uganda, N. Gulu Dist.	Uganda	3	32.25	40
ODO000860	Uganda, N.W. shore of L. Victoria	Uganda	-0.043827	32.064925	110
ODO000861	Uganda, Nairobi Plains, 5400ft	Uganda	-1.29137	36.843886	22
ODO000862	Uganda, NW. shore of L. Victoria	Uganda	-0.043827	32.064925	110
ODO000863	Uganda, Ruwenzori Mts	Uganda	0.455795	29.997864	55
ODO000864	Uganda, Ruwenzori, Bwamba V., 6500-7500ft.	Uganda	0.897222	30.363333	22
ODO000865	Uganda, W.Nile, R.Alla; Uganda, White Nile, R. Alla; 	Uganda	2.816703	31.344819	7.5
ODO000866	Uganda: Kidongo, Bwamba Valley, c. 2,500ft.	Uganda	0.897222	30.363333	22
ODO000867	Uganda: L. Victoria, Entebbe	Uganda	0.051243	32.464207	5
ODO000868	Uganda: Ruwenzori Range, Mobuku Valley, Bikoni Peak, 7000ft	Uganda	0.341073	30.058584	11
ODO000869	Umbria; Colombia: Umbria; 	Colombia	0.858648	-76.580144	0.5
ODO000870	Unduavi, Bolivia	Bolivia	-16.31226	-67.907624	0.4
ODO000871	Upper Burma, Maymyo	Myanmar	22.033479	96.468198	7
ODO000872	Upper Burma, N. Shan States, Gok Teik	Myanmar	22.346581	96.918082	1.5
ODO000873	Urugalla, Ceylon	Sri Lanka	7.316159	80.807355	14
ODO000874	Utakwa R., Dutch N. Guin., 2500-3000 ft.; Dutch New Guinea, Utakwa River; 	Indonesia	-4.632091	137.267211	40
ODO000875	Uvea; Uve, Loyalty Islands (near New Caledonia); 	New Caledonia	-20.595903	166.569459	23
ODO000876	V. de Chiriqui below 4,000 ft.; Panama, Volcan de Chiriqui below 4000 feet; 	Panama	8.360371	-82.365318	2.4
ODO000877	Valparaiso; Valparaiso (Chili); 	Chile	-33.047984	-71.611508	5
ODO000878	Vayitri Ghat, 32 mile, S. Malabar	India	11.550411	76.040402	1.3
ODO000879	Vayitri Ghat, S. Malabar, 32ml	India	11.550411	76.040402	1.3
ODO000880	Vict. Falls, Rhodesia	Zimbabwe	-17.924282	25.857049	6
ODO000881	Victoria Falls, Livingstone N.R.; Maramba river, near the Victoria Falls; 	Zambia	-17.894598	25.848412	4
ODO000882	Virajpet, Coorg.	India	12.200482	75.80647	2.2
ODO000883	Vom, N.Nigeria; Vom, North Nigeria (on a Plateau, height 4,000 feet); 	Nigeria	9.73642	8.815585	4
ODO000884	W. Africa, Sierra Leone, Yarawadu	Sierra Leone	9.047675	-10.647248	2
ODO000885	W. Africa: Principe I.; W. Africa, Principe I., Ogui Pipi; 	Sao Tome and Principe	1.618762	7.404588	9
ODO000886	W. Africa: Sierra Leone, Kaballa	Sierra Leone	9.589851	-11.55611	3.5
ODO000887	W. Africa: Sierra Leone, Port Lokko	Sierra Leone	8.77164	-12.785328	1.5
ODO000888	W. Borneo	Malaysia	0	114	800
ODO000889	W. Nigeria, Ado-Ekiti	Nigeria	7.616191	5.253283	8
ODO000890	W. Samoa, Apia	Samoa	-13.867926	-171.763362	4.5
ODO000891	W. Samoa, Malololelei, Upolu	Samoa	-13.912988	-171.734874	1
ODO000892	W. Samoa, Upolu Is., Malololelei, 2000 ft.	Samoa	-13.912988	-171.734874	1
ODO000893	W. Samoa, Upolu Island, Malololelei	Samoa	-13.912988	-171.734874	1
ODO000894	W. Samoa, Upolu, Malololelei	Samoa	-13.912988	-171.734874	1
ODO000895	W. Yunnan	China	25.05	101.866667	500
ODO000896	Wadelai; Wadelai, Central Africa; Central Africa, Wadelai	Uganda	2.729141	31.485858	4
ODO000897	Walijar Fo., S. Malabar; Western Ghats of India, Malabar, Walayar Forest; 	India	10.852834	76.822532	2.5
ODO000898	Waliyar Ft., S Malabar, S. India; ; Waliyar Gt, S. Malabar	India	10.852834	76.822532	2.5
ODO000899	Waroona, W.A.; Waroona, Western Australia; 	Australia	-32.833393	115.887139	13
ODO000900	Washington Territory; Western North America, Washington Territory; 	United States of America	47.295939	-120.391511	300
ODO000901	West Africa: Fernando Po, 650ft	Equatorial Guinea	3.5	8.7	38
ODO000902	Western Samor, Apia	Samoa	-13.867926	-171.763362	4.5
ODO000903	Widekum, S.Cameroons	Cameroon	5.867147	9.766159	1
ODO000904	Yambio, S. Sudan	South Sudan	4.576681	28.403409	2.5
ODO000905	Yana, Sierra Leone	Sierra Leone	9.739103	-12.322723	0.75
ODO000906	Yegi, Volta R., Gold Coast, W. Africa; Gold Coast, West Africa, Yegi, Volta River; 	Ghana	8.224718	-0.652356	2.2
ODO000907	YEMEN, El 'Asr, about 3 miles W. of San 'a, ca.8,100ft.	Yemen	15.352624	44.157415	0.5
ODO000908	Yokohama	Japan	35.444167	139.638056	15